LOCATION CODE,ROAD NAME,FIRST NAME,SECOND NAME,LATITUDE,LONGITUDE,NEGATIVE OFFSET,POSITIVE OFFSET,geometry,dist_to_osm_m,positive_ok,negative_ok
46138,Suksawat Road,Suksawat 70,,13.64094,100.52618,,46139,POINT (100.52618 13.64094),3.216622018886112,True,False
46139,Suksawat Road,Suksawat 64,,13.64987,100.52248,46138,46140,POINT (100.52248 13.64987),3.4077271177523962,True,True
46140,Suksawat Road,Suksawat Road,,13.65879,100.51889,46139,46141,POINT (100.51889 13.65879),4.770827376627817,True,True
46141,Suksawat Road,Industrial Ring Rd.,,13.66404,100.51696,46140,46142,POINT (100.51696 13.66404),3.4193062598642245,True,True
46142,Suksawat Road,Suk Sawat 35,,13.66861,100.5135,46141,46143,POINT (100.5135 13.66861),6.239762030308058,True,True
46143,Suksawat Road,Chalerm Maha Nakhon Expressway,,13.67157,100.50891,46142,46144,POINT (100.50891 13.67157),2.861855578830275,True,True
46144,Suksawat Road,Pracha Uthit Road,,13.67303,100.5065,46143,46145,POINT (100.5065 13.67303),1.5458075597562602,True,True
46145,Suksawat Road,Suk Sawat 27,,13.67575,100.50223,46144,46146,POINT (100.50223 13.67575),4.404256489414055,True,True
46146,Suksawat Road,Rat Burana 16,,13.67855,100.4978,46145,46147,POINT (100.4978 13.67855),1.190508240937266,True,True
46147,Suksawat Road,Suk Sawat 19,,13.68072,100.49442,46146,46148,POINT (100.49442 13.68072),5.5071253595884,True,True
46148,Suksawat Road,Suk Sawat 26,,13.68103,100.49378,46147,46149,POINT (100.49378 13.68103),0.8914230417430308,True,True
46149,Suksawat Road,Rama 2 Road,,13.68494,100.48766,46148,,POINT (100.48766 13.68494),1.2106795453340171,False,True
46150,Chaeng Watthana Road,Uttaraphimuk Elevated Tollway,,13.88413,100.58158,,46151,POINT (100.58158 13.88413),0.11719058496298616,True,False
46151,Chaeng Watthana Road,Chaeng Watthana 1,,13.88138,100.58668,46150,46152,POINT (100.58668 13.88138),5.995329706803902,True,True
46152,Chaeng Watthana Road,1/Phahon Yothin Road,,13.87552,100.59673,46151,,POINT (100.59673 13.87552),0.8911186637327984,False,True
8954,Ekkachai Road,Soi Ekkachai 131/Soi Phet Kasem 81,,13.63854,100.37195,,8955,POINT (100.37195 13.63854),0.5447461132086636,True,False
8955,Ekkachai Road,Bang Bon 4 Road,,13.64209,100.37639,8954,8956,POINT (100.37639 13.64209),3.72673006309984,True,True
8956,Ekkachai Road,Bang Kradi Road,,13.64367,100.37838,8955,8957,POINT (100.37838 13.64367),0.6350289153562422,True,True
8957,Ekkachai Road,Bang Bon 3 Road,,13.65028,100.38672,8956,46172,POINT (100.38672 13.65028),1.3453354853521498,True,True
46172,Ekkachai Road,9,,13.66282,100.40556,8957,46173,POINT (100.40556 13.66282),1.40034212742603,True,True
46173,Ekkachai Road,Ekkachai 76,,13.66891,100.4161,46172,46174,POINT (100.4161 13.66891),1.814837645249153,True,True
46174,Ekkachai Road,Bangkhunthian Road,,13.67391,100.42557,46173,46175,POINT (100.42557 13.67391),5.281712952830563,True,True
46175,Ekkachai Road,Bang Bon 1 Road,,13.67469,100.42705,46174,46176,POINT (100.42705 13.67469),1.6399059866462042,True,True
46176,Ekkachai Road,Ekkachai 69,,13.6787,100.43409,46175,46177,POINT (100.43409 13.6787),1.4049549650837558,True,True
46177,Ekkachai Road,Ekkachai 46,,13.68166,100.43923,46176,46178,POINT (100.43923 13.68166),6.558314919669675,True,True
46178,Ekkachai Road,Ekkachai 45,,13.68328,100.44233,46177,46179,POINT (100.44233 13.68328),5.597907779698277,True,True
46179,Ekkachai Road,Ekkachai 43,,13.68497,100.44539,46178,46180,POINT (100.44539 13.68497),0.04513011482508549,True,True
46180,Ekkachai Road,Ekkachai 36,,13.68518,100.44571,46179,46181,POINT (100.44571 13.68518),1.6374230685298252,True,True
46181,Ekkachai Road,Ekkachai 34,,13.68683,100.44874,46180,46182,POINT (100.44874 13.68683),1.3070303442456805,True,True
46182,Ekkachai Road,Ekkachai 32,,13.6887,100.45117,46181,46183,POINT (100.45117 13.6887),6.196998832000438,True,True
46183,Ekkachai Road,Ekkachai 24,,13.69197,100.45467,46182,46184,POINT (100.45467 13.69197),3.8854304616780015,True,True
46184,Ekkachai Road,Ekkachai 10/1,,13.69771,100.45914,46183,46185,POINT (100.45914 13.69771),6.878103363748875,True,True
46185,Ekkachai Road,3242/ Wutthakat Road,,13.69912,100.46722,46184,,POINT (100.46722 13.69912),1.2111276327685123,False,True
46216,Lamlukka Road,Uttaraphimuk Elevated Tollway,,13.95551,100.62107,,46217,POINT (100.62107 13.95551),2.3850144848707755,True,False
46217,Lamlukka Road,Phahon Yothin Road,,13.95044,100.62236,46216,46218,POINT (100.62236 13.95044),7.628886607308433,True,True
46218,Lamlukka Road,Soi Wat Lat Sanun,,13.95181,100.62912,46217,,POINT (100.62912 13.95181),4.595185324486819,False,True
46222,Lamlukka Road,Soi Lam Luk Ka 14,,13.94151,100.64222,,46223,POINT (100.64222 13.94151),1.4337030561648558,True,False
46223,Lamlukka Road,3312/Lam Lukka 25,,13.93713,100.64177,46222,46224,POINT (100.64177 13.93713),8.326725521208678,True,True
46224,Lamlukka Road,Soi Tontarn,,13.93293,100.64259,46223,46225,POINT (100.64259 13.93293),5.042025247080933,True,True
46225,Lamlukka Road,Chumchon Moo Ban Chatnarong 3,,13.93224,100.65339,46224,46226,POINT (100.65339 13.93224),1.213411028944337,True,True
46226,Lamlukka Road,Chumchon Moo Ban Chatnarong 3 East,,13.93203,100.66005,46225,46227,POINT (100.66005 13.93203),4.870089782863329,True,True
46227,Lamlukka Road,Lam Luk Ka 43,,13.93235,100.67283,46226,46228,POINT (100.67283 13.93235),1.299196095243896,True,True
46228,Lamlukka Road,Lam Luk Ka 53,,13.93253,100.67671,46227,46229,POINT (100.67671 13.93253),1.5474680881735976,True,True
46229,Lamlukka Road,Rural Road 3017,,13.93269,100.68275,46228,46230,POINT (100.68275 13.93269),6.430045843103977,True,True
46230,Lamlukka Road,Hathai Rat Road,,13.93272,100.68368,46229,46231,POINT (100.68368 13.93272),6.822397780602086,True,True
46231,Lamlukka Road,Lam Luk Ka 65,,13.93295,100.68899,46230,46232,POINT (100.68899 13.93295),5.431668869983977,True,True
46232,Lamlukka Road,Soi Lum Luk Ka 69,,13.93311,100.69435,46231,,POINT (100.69435 13.93311),3.1869137327978683,False,True
15026,Rama 2,Bang Khun Thian,,13.60941,100.37696,,54786,POINT (100.37696 13.60941),6.074574006754625,True,False
54786,Rama 2,Rama 2 Soi 82/Bang Kradi Road,,13.63267,100.39982,15026,15015,POINT (100.39982 13.63267),0.9394530410081682,True,True
15015,Rama 2,Km-10 Rama 2,,13.64081,100.40841,54786,15016,POINT (100.40841 13.64081),10.228055319819454,True,True
15016,Rama 2,Km-5 Rama 2,,13.66649,100.44607,15015,15017,POINT (100.44607 13.66649),11.311110976188653,True,True
15017,Rama 2,Km-1 Rama 2,,13.68223,100.47916,15016,15018,POINT (100.47916 13.68223),1.4354581179645929,True,True
15018,Rama 2,Dao Khanong Junction,,13.69392,100.48193,15017,15024,POINT (100.48193 13.69392),2.592333955627471,True,True
15024,Rama 2,Mahai Sawan Intersection-689,,13.70471,100.48565,15018,,POINT (100.48565 13.70471),0.08584989472671302,False,True
15014,Rama 2,Km-15 Rama 2,,13.60831,100.37586,,15025,POINT (100.37586 13.60831),6.560252700853926,True,False
15025,Rama 2,Bang Khun Thian,,13.60941,100.37696,15014,,POINT (100.37696 13.60941),6.074574006754625,False,True
46248,,Prasert-Manukitch Road,,13.81561,100.64215,,46249,POINT (100.64215 13.81561),0.9361269511979786,True,False
46249,,Nuan Chan Road,,13.81741,100.64523,46248,46250,POINT (100.64523 13.81741),2.9679232630248884,True,True
46250,,Nawamin West Road,,13.81849,100.65046,46249,46251,POINT (100.65046 13.81849),3.5995896747718126,True,True
46251,,Nawamin Road,,13.81914,100.6541,46250,46252,POINT (100.6541 13.81914),3.574011027380578,True,True
46252,,Nawamin East Road,,13.81981,100.65953,46251,46253,POINT (100.65953 13.81981),5.960405954922855,True,True
46253,,Nawamin 74 Yaek 3-9,,13.82041,100.66557,46252,46254,POINT (100.66557 13.82041),4.582111837261718,True,True
46254,,9 West,,13.81995,100.66904,46253,46255,POINT (100.66904 13.81995),1.0638191902038383,True,True
46255,,9,,13.81901,100.67595,46254,46256,POINT (100.67595 13.81901),3.1585089475130563,True,True
46256,,304,,13.81981,100.6819,46255,,POINT (100.6819 13.81981),6.050047630390107,False,True
13755,Phetkasem Road,Km-20 Phetchakasem Rd.,,13.70575,100.34552,,13763,POINT (100.34552 13.70575),1.0101705096014009,True,False
13763,Phetkasem Road,Phet Kasem 69 Intersection,,13.70786,100.37373,13755,13756,POINT (100.37373 13.70786),0.6790470096819575,True,True
13756,Phetkasem Road,Km-15 Phetchakasem Rd.,,13.70946,100.39165,13763,13764,POINT (100.39165 13.70946),4.992073965650177,True,True
13764,Phetkasem Road,Phet Kasem 88 Junction,,13.71048,100.4035,13756,13757,POINT (100.4035 13.71048),0.30908242776412426,True,True
13757,Phetkasem Road,Bang Khae,,13.7118,100.42078,13764,13758,POINT (100.42078 13.7118),0.1954235425988729,True,True
13758,Phetkasem Road,Km-10 Phetchakasem Rd.,,13.71317,100.43757,13757,13765,POINT (100.43757 13.71317),6.1451029977241065,True,True
13765,Phetkasem Road,Soi Phetkasem 46/1,,13.71593,100.44646,13758,13766,POINT (100.44646 13.71593),1.4314598758584818,True,True
13766,Phetkasem Road,Ratchaphruek Rd. - Phetchakasem Rd.-690,,13.72101,100.45814,13765,13767,POINT (100.45814 13.72101),0.7534241630277762,True,True
13767,Phetkasem Road,Bang Khae Telephone Service Office Teminal 1,,13.72729,100.46965,13766,13759,POINT (100.46965 13.72729),12.404526765744684,True,True
13759,Phetkasem Road,Tha Phra Intersection-690,,13.7294,100.47417,13767,13760,POINT (100.47417 13.7294),2.0492382864139276,True,True
13760,Phetkasem Road,Wat Sang Kha Junction,,13.72836,100.48059,13759,13761,POINT (100.48059 13.72836),3.579629446970314,True,True
13761,Phetkasem Road,Bang Yi Ruea Junction,,13.72727,100.48713,13760,13762,POINT (100.48713 13.72727),2.494267122506413,True,True
13762,Phetkasem Road,Wong Wian Yai Circle-690,,13.72637,100.49246,13761,,POINT (100.49246 13.72637),8.504220159073533,False,True
46257,Anamai Ngam Charoen 25,Anamai Ngam Charoen Road,,13.65077,100.44884,,46258,POINT (100.44884 13.65077),12.366975159017356,True,False
46258,Anamai Ngam Charoen 25,Soi 2/15,,13.65095,100.45624,46257,46259,POINT (100.45624 13.65095),6.030373726606893,True,True
46259,Anamai Ngam Charoen 25,Soi Wat Yai Rom,,13.65451,100.46461,46258,,POINT (100.46461 13.65451),2.174474492129249,False,True
46262,Anamai Ngam Charoen30,Bangkhunthian-Chaithale Road,,13.64151,100.43209,,46263,POINT (100.43209 13.64151),5.23597748217633,True,False
46263,Anamai Ngam Charoen30,Casa Ville Rama 2,,13.63675,100.4391,46262,46264,POINT (100.4391 13.63675),3.252998701145627,True,True
46264,Anamai Ngam Charoen30,Thakham Road,,13.6376,100.44674,46263,46265,POINT (100.44674 13.6376),2.281550496772212,True,True
46265,Anamai Ngam Charoen30,Anamai Ngam Charoen Road,,13.63781,100.44874,46264,,POINT (100.44874 13.63781),3.0056739268976154,False,True
46266,Anamai Ngam Charoen Road,9,,13.62661,100.45043,,46267,POINT (100.45043 13.62661),7.120900924099281,True,False
46267,Anamai Ngam Charoen Road,Anamai Ngam Charoen 35,,13.63454,100.44938,46266,46268,POINT (100.44938 13.63454),2.255728283107477,True,True
46268,Anamai Ngam Charoen Road,Anamai Ngam Charoen30,,13.63781,100.44874,46267,46269,POINT (100.44874 13.63781),3.0056739268976154,True,True
46269,Anamai Ngam Charoen Road,Anamai Ngam Charoen Road,,13.64084,100.44903,46268,,POINT (100.44903 13.64084),3.3598539921843953,False,True
25501,Arun Ammarin Road,Prachathipok-somdetchaophraya Intersection-536,,13.73447,100.49594,,25502,POINT (100.49594 13.73447),5.249472959535648,True,False
25502,Arun Ammarin Road,Thetsaban Sai 1 Road,,13.73658,100.49298,25501,25503,POINT (100.49298 13.73658),1.9261127251069738,True,True
25503,Arun Ammarin Road,Bakok Yai Bridge,,13.73965,100.48948,25502,25504,POINT (100.48948 13.73965),5.410668389224704,True,True
25504,Arun Ammarin Road,Wang Doem Intersection,,13.74217,100.48754,25503,25505,POINT (100.48754 13.74217),1.5825064834202518,True,True
25505,Arun Ammarin Road,Soi Thawitha Phisek-536,,13.74556,100.48549,25504,25506,POINT (100.48549 13.74556),3.559566650496524,True,True
25506,Arun Ammarin Road,Soi Saengsueksa,,13.7487,100.48404,25505,25507,POINT (100.48404 13.7487),0.9497145532339156,True,True
25507,Arun Ammarin Road,Chao Pho Kamin Shrine,,13.75219,100.48356,25506,25508,POINT (100.48356 13.75219),1.121443675668844,True,True
25508,Arun Ammarin Road,Siriraj Intersection,,13.75607,100.48341,25507,25509,POINT (100.48341 13.75607),1.1208270088535175,True,True
25509,Arun Ammarin Road,Wat Amarin Tharam,,13.75989,100.48269,25508,25510,POINT (100.48269 13.75989),2.495330716386247,True,True
25510,Arun Ammarin Road,Arun Ammarin Intersection-536,,13.76867,100.48581,25509,25511,POINT (100.48581 13.76867),4.219390894314223,True,True
25511,Arun Ammarin Road,Soi Charansanitwong 40,,13.77139,100.4886,25510,25512,POINT (100.4886 13.77139),4.293687269598571,True,True
25512,Arun Ammarin Road,Rama 8 Bridge (Thonburi),,13.77251,100.49184,25511,25513,POINT (100.49184 13.77251),0.7652936792889159,True,True
25513,Arun Ammarin Road,Rama 8 Bridge,,13.76928,100.49662,25512,25518,POINT (100.49662 13.76928),1.3246484127214369,True,True
25518,Arun Ammarin Road,Bang Khun Phrom Intersection-536,,13.76692,100.5011,25513,,POINT (100.5011 13.76692),0.657443215880299,False,True
39000,Aumnuai Songkhram Rd.,Bang Krabue Intersection-563,,13.78939,100.51465,,39001,POINT (100.51465 13.78939),0.9287878900783488,True,False
39001,Aumnuai Songkhram Rd.,Amnuai Songkhram-ruam Chit Junction-563,,13.78759,100.51758,39000,39002,POINT (100.51758 13.78759),1.6347447208793047,True,True
39002,Aumnuai Songkhram Rd.,Amnuai Songkhram Junction-563,,13.78598,100.52016,39001,39005,POINT (100.52016 13.78598),2.0526116171500774,True,True
39005,Aumnuai Songkhram Rd.,Keschakomola Intersection-563,,13.78333,100.52441,39002,,POINT (100.52441 13.78333),1.3144010363329,False,True
16000,Bamrung Mueang Road,Sao Chingcha 2 Intersection,,13.7519,100.50202,,16001,POINT (100.50202 13.7519),2.466584031246698,True,False
16001,Bamrung Mueang Road,Samranrat Intersection-516,,13.75212,100.50451,16000,16002,POINT (100.50451 13.75212),2.087812981400735,True,True
16002,Bamrung Mueang Road,Men Pun Intersection,,13.75214,100.50546,16001,16003,POINT (100.50546 13.75214),3.8249177831648105,True,True
16003,Bamrung Mueang Road,Mane Si Intersection-516,,13.75187,100.5087,16002,16004,POINT (100.5087 13.75187),0.9355412767173937,True,True
16004,Bamrung Mueang Road,Yukhon 2 Junction-516,,13.75072,100.51203,16003,16005,POINT (100.51203 13.75072),4.246976890113688,True,True
16005,Bamrung Mueang Road,Anamai Intersection,,13.74985,100.5145,16004,16006,POINT (100.5145 13.74985),7.648885851385398,True,True
16006,Bamrung Mueang Road,Kasat Suk Intersection-516,,13.74909,100.51674,16005,16017,POINT (100.51674 13.74909),0.7277965889575922,True,True
16017,Bamrung Mueang Road,Soi Wat Borom Niwat,,13.74835,100.51897,16006,16018,POINT (100.51897 13.74835),6.122445147294545,True,True
16018,Bamrung Mueang Road,Phong Phraram Intersection-516,,13.74799,100.52078,16017,,POINT (100.52078 13.74799),0.7552251992115929,False,True
46278,Bang Khun Non Road,Charan Sanitwong Road,,13.76403,100.4738,,46279,POINT (100.4738 13.76403),4.210291726058391,True,False
46279,Bang Khun Non Road,Soi Bang Khun Non 15,,13.7679,100.47042,46278,46280,POINT (100.47042 13.7679),0.28132030305641703,True,True
46280,Bang Khun Non Road,Soi Bang Khun Non 25,,13.77192,100.46792,46279,46281,POINT (100.46792 13.77192),6.11373558239297,True,True
46281,Bang Khun Non Road,Soi Bang Khun Non 37,,13.77699,100.4652,46280,46282,POINT (100.4652 13.77699),9.942133633364072,True,True
46282,Bang Khun Non Road,Chaiyaphruek Road,,13.77878,100.46524,46281,,POINT (100.46524 13.77878),5.497941585494298,False,True
46283,Bang Na,Soi Muban Prem Ruethai Townhouse,,13.65145,100.61956,,46284,POINT (100.61956 13.65145),2.054230511593003,True,False
46284,Bang Na,Lasalle 36,,13.65678,100.62248,46283,46285,POINT (100.62248 13.65678),1.0560997575902713,True,True
46285,Bang Na,Lasalle Road,,13.6607,100.62492,46284,,POINT (100.62492 13.6607),0.6625488428680155,False,True
17500,Bangna-Trat Road,Old Railway Intersection,,13.67624,100.59146,,17501,POINT (100.59146 13.67624),9.120248445606606,True,False
17501,Bangna-Trat Road,Bangna Intersection-519,,13.67334,100.60683,17500,17502,POINT (100.60683 13.67334),1.187867011022796,True,True
17502,Bangna-Trat Road,Km-5 Bang Na Trat Rd.,,13.6643,100.65183,17501,17512,POINT (100.65183 13.6643),1.692170338328113,True,True
17512,Bangna-Trat Road,Bang Na,,13.66407,100.65229,17502,,POINT (100.65229 13.66407),4.888169130100424,False,True
46300,Bang Na-Trat 23,Bangna-Trat Road,,13.66812,100.635,,46301,POINT (100.635 13.66812),4.904494551449704,True,False
46301,Bang Na-Trat 23,Rangsiya Soi 4,,13.67364,100.63658,46300,46302,POINT (100.63658 13.67364),7.3020209661801045,True,True
46302,Bang Na-Trat 23,Srinagarindra 58,,13.67533,100.64135,46301,,POINT (100.64135 13.67533),1.128172947056639,False,True
46305,Bang Na-Trat 30,Lasalle 55,,13.66256,100.63033,,46306,POINT (100.63033 13.66256),6.537681791093341,True,False
46306,Bang Na-Trat 30,Bangna-Trat Road,,13.66781,100.63202,46305,,POINT (100.63202 13.66781),4.692640816176122,False,True
46315,Bangkhunthian Road,Bangkhunthian-Chaithale Road,,13.65326,100.43054,,46316,POINT (100.43054 13.65326),2.3083594263238116,True,False
46316,Bangkhunthian Road,35,,13.65671,100.43003,46315,46317,POINT (100.43003 13.65671),2.275300488706201,True,True
46317,Bangkhunthian Road,Phaendinthong Road,,13.66453,100.42886,46316,46318,POINT (100.42886 13.66453),4.305091330927998,True,True
46318,Bangkhunthian Road,Soi Monthat Ratchasri Pichit,,13.6689,100.42784,46317,46319,POINT (100.42784 13.6689),4.0197396839552235,True,True
46319,Bangkhunthian Road,Ekkachai Road,,13.67391,100.42557,46318,,POINT (100.42557 13.67391),5.281712952830563,False,True
53519,Bangkhunthian-Chaithale Road,Rural Road 4008,,13.51918,100.40666,,53518,POINT (100.40666 13.51918),3.3964059239608924,True,False
53518,Bangkhunthian-Chaithale Road,Thian Thale 25,,13.56306,100.41943,53519,53517,POINT (100.41943 13.56306),0.9781419128087205,True,True
53517,Bangkhunthian-Chaithale Road,Soi Thian Thale 23,,13.58488,100.42804,53518,46320,POINT (100.42804 13.58488),1.3745035976628186,True,True
46320,Bangkhunthian-Chaithale Road,Soi Witsawaphan,,13.59014,100.42977,53517,46321,POINT (100.42977 13.59014),0.32558993494059524,True,True
46321,Bangkhunthian-Chaithale Road,Soi Ruamchai Phatthana,,13.59838,100.43262,46320,46322,POINT (100.43262 13.59838),0.2488133415878521,True,True
46322,Bangkhunthian-Chaithale Road,Thian Thale 26,,13.60531,100.43494,46321,46323,POINT (100.43494 13.60531),4.653757214734387,True,True
46323,Bangkhunthian-Chaithale Road,Soi Thian Thale 24,,13.6139,100.43762,46322,46324,POINT (100.43762 13.6139),2.048741589490729,True,True
46324,Bangkhunthian-Chaithale Road,Thian Thale 20/1,,13.62397,100.43586,46323,46325,POINT (100.43586 13.62397),1.677860923066253,True,True
46325,Bangkhunthian-Chaithale Road,Thian Thale 20,,13.6257,100.43498,46324,46326,POINT (100.43498 13.6257),1.183692475026929,True,True
46326,Bangkhunthian-Chaithale Road,9,,13.62718,100.43466,46325,46327,POINT (100.43466 13.62718),6.959616976079024,True,True
46327,Bangkhunthian-Chaithale Road,Sakae Ngam Road,,13.62971,100.43417,46326,46328,POINT (100.43417 13.62971),0.22634492164642794,True,True
46328,Bangkhunthian-Chaithale Road,Soi Thian Thale 11,,13.63492,100.43315,46327,46329,POINT (100.43315 13.63492),3.5461712015139906,True,True
46329,Bangkhunthian-Chaithale Road,Thian Thale 16,,13.64092,100.43217,46328,46330,POINT (100.43217 13.64092),2.756856648456753,True,True
46330,Bangkhunthian-Chaithale Road,Anamai Ngam Charoen30,,13.64151,100.43209,46329,46331,POINT (100.43209 13.64151),5.23597748217633,True,True
46331,Bangkhunthian-Chaithale Road,Soi Thian Thale 12,,13.64971,100.43096,46330,46332,POINT (100.43096 13.64971),0.9655824439594106,True,True
46332,Bangkhunthian-Chaithale Road,Bangkhunthian Road,,13.65326,100.43054,46331,,POINT (100.43054 13.65326),2.3083594263238116,False,True
41000,Bangkok-Nonthaburi Road,Tao Pun Junction-567,,13.80635,100.53082,,41001,POINT (100.53082 13.80635),4.136742713046304,True,False
41001,Bangkok-Nonthaburi Road,Soi Bangkok-nonthaburi 5,,13.81031,100.53131,41000,41002,POINT (100.53131 13.81031),3.9594036122032734,True,True
41002,Bangkok-Nonthaburi Road,Soi Bangkok-nonthaburi 13,,13.81275,100.53163,41001,41003,POINT (100.53163 13.81275),1.2956882568479318,True,True
41003,Bangkok-Nonthaburi Road,Prachachuen 16,,13.81592,100.53206,41002,41004,POINT (100.53206 13.81592),2.6055261166192136,True,True
41004,Bangkok-Nonthaburi Road,Soi Bangkok-nonthaburi 32,,13.81858,100.53237,41003,41005,POINT (100.53237 13.81858),0.35045986460892337,True,True
41005,Bangkok-Nonthaburi Road,Soi Doksom,,13.82249,100.53282,41004,41006,POINT (100.53282 13.82249),1.208365269143245,True,True
41006,Bangkok-Nonthaburi Road,Soi Bangkok-nonthaburi 44,,13.82592,100.53135,41005,41007,POINT (100.53135 13.82592),0.6174919028553322,True,True
41007,Bangkok-Nonthaburi Road,Wong Sawang Intersection-567,,13.82828,100.52844,41006,,POINT (100.52844 13.82828),2.4126049200335236,False,True
46334,Bangkok-Nonthaburi Road,Soi Krungthepnon 7,,13.83862,100.51599,,46335,POINT (100.51599 13.83862),1.8701306853974966,True,False
46335,Bangkok-Nonthaburi Road,Bangkok-Nonthaburi Road,,13.83362,100.52204,46334,,POINT (100.52204 13.83362),4.604911954296468,False,True
32503,Banmo Rd.,Si Yak Phraya Si Intersection-550,,13.74721,100.49767,,32507,POINT (100.49767 13.74721),1.9566762304304264,True,False
32507,Banmo Rd.,Si Yak Sao Ching Cha Intersection-550,,13.75147,100.49819,32503,,POINT (100.49819 13.75147),0.7753333721339034,False,True
14170,Banthat Thong Road,Charoen Phon Intersection-608,,13.74745,100.52377,,14171,POINT (100.52377 13.74745),0.14117059091736708,True,False
14171,Banthat Thong Road,Charoen Phon Bridge,,13.75036,100.52481,14170,14172,POINT (100.52481 13.75036),1.0463694878459138,True,True
14172,Banthat Thong Road,Phet Phraram Junction,,13.75503,100.5269,14171,,POINT (100.5269 13.75503),6.032134373461619,False,True
46338,Baring 34,Dan Samrong 62 Road,,13.64798,100.61266,,46339,POINT (100.61266 13.64798),1.23989791098079,True,False
46339,Baring 34,Soi Sukhumvit 107,,13.65305,100.61548,46338,,POINT (100.61548 13.65305),1.6452653401267,False,True
22504,Borommaratcha Chonnani Road,Somdet Phra Pinklao Bridge,,13.76237,100.49067,,22505,POINT (100.49067 13.76237),1.8019703105752398,True,False
22505,Borommaratcha Chonnani Road,Arun Ammarin Intersection-641,,13.76867,100.48581,22504,22506,POINT (100.48581 13.76867),4.219390894314223,True,True
22506,Borommaratcha Chonnani Road,Borommaratchachonnani Intersection-641,,13.77338,100.48183,22505,22507,POINT (100.48183 13.77338),0.9755239580378853,True,True
22507,Borommaratcha Chonnani Road,Soi Boromratchachonnani 15,,13.77999,100.47567,22506,22508,POINT (100.47567 13.77999),2.013870288758826,True,True
22508,Borommaratcha Chonnani Road,Rung Pracha Road,,13.7843,100.47173,22507,22509,POINT (100.47173 13.7843),1.737674767508526,True,True
22509,Borommaratcha Chonnani Road,Highway 341-338 Intersection,,13.78766,100.46889,22508,,POINT (100.46889 13.78766),0.12865393009553136,False,True
16072,Burapha Withi Exp.,Toll Bang Kaeo,,13.65584,100.67095,,20293,POINT (100.67095 13.65584),1.1099636645944373,True,False
20293,Burapha Withi Exp.,Bang Kaeo,,13.65619,100.67072,16072,,POINT (100.67072 13.65619),2.6031968919811104,False,True
16071,Burapha Withi Exp.,Bang Kaeo,,13.6552,100.67191,,20292,POINT (100.67191 13.6552),3.191678528420087,True,False
20292,Burapha Withi Exp.,Toll Bang Kaeo,,13.65584,100.67095,16071,,POINT (100.67095 13.65584),1.1099636645944373,False,True
16077,Burapha Withi Exp.,Bangna Km.2,,13.6677,100.63429,,20294,POINT (100.63429 13.6677),1.9432769175091902,True,False
20294,Burapha Withi Exp.,Off Ramp Connection Bangna Km.2 - 8294,,13.66835,100.63017,16077,,POINT (100.63017 13.66835),1.8184599473803387,False,True
16088,Burapha Withi Exp.,Bang Na,,13.66451,100.65238,,46032,POINT (100.65238 13.66451),6.276913345426298,True,False
46032,Burapha Withi Exp.,Bang Phli (West),,13.65629,100.67097,16088,,POINT (100.67097 13.65629),1.1154472131634443,False,True
16074,Burapha Withi Exp.,Bang Kaeo - 1361,,13.65619,100.67072,,16097,POINT (100.67072 13.65619),2.6031968919811104,True,False
16097,Burapha Withi Exp.,Bang Na,,13.6641,100.6523,16074,,POINT (100.6523 13.6641),1.4008749504672326,False,True
46026,Burapha Withi Exp.,Bang Na (KM. 2),,13.66885,100.6304,,20256,POINT (100.6304 13.66885),2.6055526515430047,True,False
20256,Burapha Withi Exp.,On Ramp Connection Bangna (KM. 2) - 8256,,13.66788,100.63433,46026,,POINT (100.63433 13.66788),2.2074380669301514,False,True
16080,Burapha Withi Exp.,Bang Phli,,13.65139,100.68813,,20296,POINT (100.68813 13.65139),9.683975049667746,True,False
20296,Burapha Withi Exp.,To Outer Ring - 8296,,13.64999,100.68743,16080,,POINT (100.68743 13.64999),5.668257823528127,False,True
46025,Burapha Withi Exp.,Section Link S1 (To Chonburi) - 2062,,13.67288,100.60897,,46027,POINT (100.60897 13.67288),5.272442835188339,True,False
46027,Burapha Withi Exp.,Section Link S1 (To Chonburi) - 2063,,13.66788,100.63433,46025,46028,POINT (100.63433 13.66788),2.2074380669301514,True,True
46028,Burapha Withi Exp.,Wat Si Auem Section,,13.66714,100.63908,46027,46029,POINT (100.63908 13.66714),7.688554394571681,True,True
46029,Burapha Withi Exp.,Bangna Km 6 ( 2 K.M. ),,13.66612,100.64391,46028,16087,POINT (100.64391 13.66612),5.954189560779714,True,True
16087,Burapha Withi Exp.,Bang Na,,13.66451,100.65238,46029,,POINT (100.65238 13.66451),6.276913345426298,False,True
16098,Burapha Withi Exp.,Bang Na,,13.6641,100.6523,,16075,POINT (100.6523 13.6641),1.4008749504672326,True,False
16075,Burapha Withi Exp.,Yan Srinakharin - Bangna Intersection - 1061,,13.66596,100.64314,16098,16076,POINT (100.64314 13.66596),1.282712019465144,True,True
16076,Burapha Withi Exp.,Bangna Km.2 (500 m.),,13.66676,100.63901,16075,16078,POINT (100.63901 13.66676),0.0644091447419651,True,True
16078,Burapha Withi Exp.,Bangna Km.2,,13.6677,100.63429,16076,16086,POINT (100.63429 13.6677),1.9432769175091902,True,True
16086,Burapha Withi Exp.,Section Link S1 - 1061 From Chonburi,,13.6726,100.60889,16078,,POINT (100.60889 13.6726),1.9166034905062077,False,True
14114,Chaeng Watthana Road,Liap Khlong Prapa Rd. Intersection,,13.89533,100.55428,,14117,POINT (100.55428 13.89533),7.03667583427837,True,False
14117,Chaeng Watthana Road,Laksi,,13.8953,100.55436,14114,14115,POINT (100.55436 13.8953),7.149587921155492,True,True
14115,Chaeng Watthana Road,Vibhavadi-Rangsit Road,,13.88428,100.58159,14117,,POINT (100.58159 13.88428),2.113195712012921,False,True
33505,Chakkraphatdiphong Rd.,Mane Si Intersection-658,,13.75187,100.5087,,33508,POINT (100.5087 13.75187),0.9355412767173937,True,False
33508,Chakkraphatdiphong Rd.,Bank of Ayudhya,,13.75501,100.50949,33505,33506,POINT (100.50949 13.75501),2.403917611912022,True,True
33506,Chakkraphatdiphong Rd.,Lan Luang Intersection-658,,13.75644,100.50966,33508,33507,POINT (100.50966 13.75644),0.16462094921467102,True,True
33507,Chakkraphatdiphong Rd.,Chakkraphatdiphong Intersection-658,,13.75825,100.50951,33506,,POINT (100.50951 13.75825),1.2041969885700288,False,True
33501,Chakkrawat Road,Phra Pok Klao Bridge,,13.74091,100.50102,,33509,POINT (100.50102 13.74091),2.9929616274237008,True,False
33509,Chakkrawat Road,Wat Tuk Intersection-552,,13.74416,100.50442,33501,,POINT (100.50442 13.74416),0.819469730760606,False,True
33000,Chakphet Road,Phra Pok Klao Bridge,,13.74137,100.50017,,33012,POINT (100.50017 13.74137),0.958333945890571,True,False
33012,Chakphet Road,Mery Kings Intersection-551,,13.74502,100.50262,33000,,POINT (100.50262 13.74502),0.8099276049290419,False,True
11092,Chalerm Maha Nakhon Expressway,Rama 3 Overpass - 1012,,13.68602,100.51984,,11094,POINT (100.51984 13.68602),1.7532309509702453,True,False
11094,Chalerm Maha Nakhon Expressway,Bang Khlo Overpass (From Rama 9 Bridge ),,13.69199,100.52454,11092,,POINT (100.52454 13.69199),0.6806536167799792,False,True
11064,Chalerm Maha Nakhon Expressway,To Toll Port,,13.71132,100.56308,,20029,POINT (100.56308 13.71132),6.98380217566751,True,False
20029,Chalerm Maha Nakhon Expressway,On Ramp Connection Port (To Rama 9 Rd.) - 8029,,13.7125,100.56162,11064,,POINT (100.56162 13.7125),3.0050653080849314,False,True
11045,Chalerm Maha Nakhon Expressway,Bangna - Port From Chonburi,,13.6726,100.60889,,20020,POINT (100.60889 13.6726),1.9166034905062077,True,False
20020,Chalerm Maha Nakhon Expressway,Bangna Front Toll Plaza - 8020,,13.67361,100.60591,11045,,POINT (100.60591 13.67361),2.984278209558165,False,True
11047,Chalerm Maha Nakhon Expressway,Bangna Front Toll Plaza,,13.67361,100.60591,,20022,POINT (100.60591 13.67361),2.984278209558165,True,False
20022,Chalerm Maha Nakhon Expressway,Rongklan Flat - 8022,,13.67576,100.60444,11047,,POINT (100.60444 13.67576),3.6296686267889045,False,True
11046,Chalerm Maha Nakhon Expressway,Bangna Front Toll Plaza (From Samutprakran),,13.67185,100.60612,,20021,POINT (100.60612 13.67185),0.607521795187941,True,False
20021,Chalerm Maha Nakhon Expressway,Bangna Front Toll Plaza - 8021,,13.67361,100.60591,11046,,POINT (100.60591 13.67361),2.984278209558165,False,True
11071,Chalerm Maha Nakhon Expressway,Narathiwat Ratchanakharin Rd. Overpass - 2012,,13.70031,100.54185,,11073,POINT (100.54185 13.70031),11.620557000709693,True,False
11073,Chalerm Maha Nakhon Expressway,Sathu Pradit 1 (From Port),,13.69804,100.54028,11071,11074,POINT (100.54028 13.69804),4.398833493966269,True,True
11074,Chalerm Maha Nakhon Expressway,To Sathu Pradit 3,,13.6937,100.5305,11073,11077,POINT (100.5305 13.6937),4.7438999211988175,True,True
11077,Chalerm Maha Nakhon Expressway,On Ramp Connection Sathu Pradit 2 (To Rama 9 Bridge) - 2012,,13.6923,100.52679,11074,11078,POINT (100.52679 13.6923),3.029062103140813,True,True
11078,Chalerm Maha Nakhon Expressway,On Ramp Connection Bang Khlo Overpass (To Rama 9 Bridge) - 2012,,13.69046,100.52461,11077,11079,POINT (100.52461 13.69046),9.997079181131673,True,True
11079,Chalerm Maha Nakhon Expressway,Rama 3 Overpass - 2012,,13.68555,100.52076,11078,,POINT (100.52076 13.68555),3.7272498437377384,False,True
45915,Chalerm Maha Nakhon Expressway,Dindaeng Front Toll Plaza,,13.76862,100.55079,,45916,POINT (100.55079 13.76862),6.861736781450441,True,False
45916,Chalerm Maha Nakhon Expressway,Din Daeng (1),,13.76553,100.54922,45915,45917,POINT (100.54922 13.76553),3.655677039739743,True,True
45917,Chalerm Maha Nakhon Expressway,Makkasan Overpass (S2),,13.76163,100.5471,45916,11120,POINT (100.5471 13.76163),2.460835819217052,True,True
11120,Chalerm Maha Nakhon Expressway,Makkasan Overpass (S3),,13.75539,100.54573,45917,45919,POINT (100.54573 13.75539),4.142180841214917,True,True
45919,Chalerm Maha Nakhon Expressway,Bangkok Phalet Curve (1),,13.7515,100.54932,11120,,POINT (100.54932 13.7515),11.974213827720979,False,True
45924,Chalerm Maha Nakhon Expressway,Duangphitak,,13.73699,100.55144,,45926,POINT (100.55144 13.73699),2.466949792885501,True,False
45926,Chalerm Maha Nakhon Expressway,Bonkai Flat Out 1,,13.73314,100.55182,45924,45927,POINT (100.55182 13.73314),7.524209999446871,True,True
45927,Chalerm Maha Nakhon Expressway,Bonkai Flat Out 2,,13.72832,100.55237,45926,45929,POINT (100.55237 13.72832),5.47835874934983,True,True
45929,Chalerm Maha Nakhon Expressway,Rama 4 Overpass (N1),,13.72641,100.55258,45927,45930,POINT (100.55258 13.72641),5.28136550194093,True,True
45930,Chalerm Maha Nakhon Expressway,Port Overpass (5),,13.72226,100.55293,45929,,POINT (100.55293 13.72226),7.415269322380576,False,True
11042,Chalerm Maha Nakhon Expressway,Port (From Artnarong ),,13.71113,100.56356,,46102,POINT (100.56356 13.71113),2.262969703979505,True,False
46102,Chalerm Maha Nakhon Expressway,Toll Port,,13.71132,100.56308,11042,,POINT (100.56308 13.71132),6.98380217566751,False,True
11090,Chalerm Maha Nakhon Expressway,Suksawat (From Suksawat Rd. To Rama 9 Bridge),,13.67285,100.50712,,20040,POINT (100.50712 13.67285),12.763313923198872,True,False
20040,Chalerm Maha Nakhon Expressway,Toll Suksawat,,13.67223,100.50667,11090,,POINT (100.50667 13.67223),7.322994429724879,False,True
11076,Chalerm Maha Nakhon Expressway,Toll Sathu Pradit 2 (From Port),,13.69398,100.53169,,20033,POINT (100.53169 13.69398),1.855140787150955,True,False
20033,Chalerm Maha Nakhon Expressway,On Ramp Connection Sathu Pradit 2 (To Rama 9 Bridge) - 8396,,13.6923,100.52679,11076,,POINT (100.52679 13.6923),3.029062103140813,False,True
46054,Chalerm Maha Nakhon Expressway,To Bang Chak,,13.68233,100.6031,,20304,POINT (100.6031 13.68233),5.434538841052733,True,False
20304,Chalerm Maha Nakhon Expressway,To Bang Chak - 8304,,13.68441,100.60231,46054,,POINT (100.60231 13.68441),9.566001393642953,False,True
45925,Chalerm Maha Nakhon Expressway,To Phloen Chit (Duang Phithak),,13.74253,100.55119,,46088,POINT (100.55119 13.74253),3.9363647905716777,True,False
46088,Chalerm Maha Nakhon Expressway,Bonkai Flat Out 1 - 8003,,13.73314,100.55182,45925,,POINT (100.55182 13.73314),7.524209999446871,False,True
11109,Chalerm Maha Nakhon Expressway,To Rama 4 (N1),,13.71969,100.55272,,20047,POINT (100.55272 13.71969),6.691500626156873,True,False
20047,Chalerm Maha Nakhon Expressway,To Rama 4 Rd. - 8047,,13.72347,100.55106,11109,,POINT (100.55106 13.72347),4.83238807473898,False,True
11072,Chalerm Maha Nakhon Expressway,To Sathu Pradit 1 (From Port),,13.69804,100.54028,,20032,POINT (100.54028 13.69804),4.398833493966269,True,False
20032,Chalerm Maha Nakhon Expressway,Off Ramp Connection Ratchada Phisek Rd. - 8032,,13.69409,100.53341,11072,,POINT (100.53341 13.69409),8.876992426299697,False,True
11104,Chalerm Maha Nakhon Expressway,Port Overpass (1),,13.71492,100.55496,,20045,POINT (100.55496 13.71492),1.2883450077836707,True,False
20045,Chalerm Maha Nakhon Expressway,Rama 4,,13.71894,100.55301,11104,,POINT (100.55301 13.71894),0.5394573478333842,False,True
11105,Chalerm Maha Nakhon Expressway,Port Overpass (3),,13.71492,100.55496,,20046,POINT (100.55496 13.71492),1.2883450077836707,True,False
20046,Chalerm Maha Nakhon Expressway,Port Overpass (4) - 8046,,13.71709,100.55492,11105,,POINT (100.55492 13.71709),3.393943850877087,False,True
11106,Chalerm Maha Nakhon Expressway,Port Overpass (7),,13.71584,100.55713,,11107,POINT (100.55713 13.71584),5.961579782436484,True,False
11107,Chalerm Maha Nakhon Expressway,Port Overpass (4),,13.71709,100.55492,11106,11108,POINT (100.55492 13.71709),3.393943850877087,True,True
11108,Chalerm Maha Nakhon Expressway,Rama 4,,13.71894,100.55301,11107,11110,POINT (100.55301 13.71894),0.5394573478333842,True,True
11110,Chalerm Maha Nakhon Expressway,Rama 4 Overpass (S1),,13.71969,100.55272,11108,11113,POINT (100.55272 13.71969),6.691500626156873,True,True
11113,Chalerm Maha Nakhon Expressway,Bonkai Flat In 1,,13.7261,100.55215,11110,11114,POINT (100.55215 13.7261),13.50776443857221,True,True
11114,Chalerm Maha Nakhon Expressway,Bonkai Flat In 2,,13.73004,100.55172,11113,11116,POINT (100.55172 13.73004),7.706135209312173,True,True
11116,Chalerm Maha Nakhon Expressway,Phloen Chit Hill (2),,13.73913,100.55073,11114,11118,POINT (100.55073 13.73913),14.169752911593205,True,True
11118,Chalerm Maha Nakhon Expressway,Bangkok Phalet Curve (2),,13.74533,100.55012,11116,11119,POINT (100.55012 13.74533),4.5061545521999715,True,True
11119,Chalerm Maha Nakhon Expressway,Makkasan Overpass (To Expressway 2) (N1),,13.75215,100.54839,11118,46124,POINT (100.54839 13.75215),12.185479739832369,True,True
46124,Chalerm Maha Nakhon Expressway,Makkasan Overpass (To Expressway 2) (S3) - 1011,,13.75629,100.54483,11119,11093,POINT (100.54483 13.75629),12.113791613372104,True,True
11093,Chalerm Maha Nakhon Expressway,To Dindaeng (1),,13.76228,100.54714,46124,11095,POINT (100.54714 13.76228),4.551939900012861,True,True
11095,Chalerm Maha Nakhon Expressway,To Dindaeng (2),,13.7665,100.5494,11093,11124,POINT (100.5494 13.7665),4.366244182873722,True,True
11124,Chalerm Maha Nakhon Expressway,1 To Dindaeng - 2 Dindaeng Flat,,13.76869,100.55061,11095,,POINT (100.55061 13.76869),4.132289278146686,False,True
11066,Chalerm Maha Nakhon Expressway,Port Overpass (Noklek Curve),,13.71584,100.55713,,20030,POINT (100.55713 13.71584),5.961579782436484,True,False
20030,Chalerm Maha Nakhon Expressway,To Rama 3 Rd. - 8030,,13.7145,100.55537,11066,,POINT (100.55537 13.7145),0.9506862288784567,False,True
11049,Chalerm Maha Nakhon Expressway,Rongklan Flat,,13.67576,100.60444,,11050,POINT (100.60444 13.67576),3.6296686267889045,True,False
11050,Chalerm Maha Nakhon Expressway,Sukhumwit 62 Flat (In 1) (2),,13.68534,100.60243,11049,11053,POINT (100.60243 13.68534),5.867624267036271,True,True
11053,Chalerm Maha Nakhon Expressway,Sukhumwit 62 Flat (In 1) (1),,13.69541,100.5953,11050,11054,POINT (100.5953 13.69541),6.253119583162167,True,True
11054,Chalerm Maha Nakhon Expressway,Sukhumwit 62 Hill (In 1),,13.69803,100.5922,11053,11055,POINT (100.5922 13.69803),4.0072983693247535,True,True
11055,Chalerm Maha Nakhon Expressway,Sukhumwit 62 Hill (In 2),,13.69888,100.59158,11054,,POINT (100.59158 13.69888),0.9703040534008588,False,True
11065,Chalerm Maha Nakhon Expressway,On Ramp Connection Port (To Rama 9 Rd.) - 1013,,13.7125,100.56162,,11128,POINT (100.56162 13.7125),3.0050653080849314,True,False
11128,Chalerm Maha Nakhon Expressway,Port-2Port Overpass,,13.71584,100.55713,11065,,POINT (100.55713 13.71584),5.961579782436484,False,True
46050,Chalerm Maha Nakhon Expressway,S1/Exit Bit 1,,13.70408,100.59356,,46051,POINT (100.59356 13.70408),2.6473526339541027,True,False
46051,Chalerm Maha Nakhon Expressway,S1/Exit Bit 2,,13.69547,100.5958,46050,,POINT (100.5958 13.69547),1.071102205511094,False,True
46053,Chalerm Maha Nakhon Expressway,Section Link S1 From Chonburi,,13.6726,100.60889,,46055,POINT (100.60889 13.6726),1.9166034905062077,True,False
46055,Chalerm Maha Nakhon Expressway,Phra Khanong,,13.68233,100.6031,46053,46057,POINT (100.6031 13.68233),5.434538841052733,True,True
46057,Chalerm Maha Nakhon Expressway,Khlong Toei,,13.70425,100.59321,46055,,POINT (100.59321 13.70425),12.640879181023323,False,True
46346,Chalong Rat Expressway,304,,13.85076,100.64005,,46347,POINT (100.64005 13.85076),0.43664304815407984,True,False
46347,Chalong Rat Expressway,Vacharaphol Road,,13.85824,100.64214,46346,46348,POINT (100.64214 13.85824),14.637237809273547,True,True
46348,Chalong Rat Expressway,Soi Sasiprapha,,13.8641,100.64519,46347,46349,POINT (100.64519 13.8641),1.4505028485188887,True,True
46349,Chalong Rat Expressway,Vacharaphol North Road,,13.87246,100.64624,46348,46350,POINT (100.64624 13.87246),3.397411058428468,True,True
46350,Chalong Rat Expressway,Sukha Phiban5 Soi 25,,13.88049,100.64776,46349,46351,POINT (100.64776 13.88049),8.103253579884806,True,True
46351,Chalong Rat Expressway,Sukhaphiban 5 Road,,13.88627,100.65098,46350,46352,POINT (100.65098 13.88627),3.6443792447037877,True,True
46352,Chalong Rat Expressway,Sukha Phiban 5 Soi 42,,13.89302,100.65965,46351,46353,POINT (100.65965 13.89302),8.34993214408425,True,True
46353,Chalong Rat Expressway,Chatu Chot 10,,13.8968,100.67122,46352,,POINT (100.67122 13.8968),4.658984797266225,False,True
14055,Chalongrat Expressway (ram Inthra-artnar,Toll Lat Phrao,,13.79283,100.6113,,20194,POINT (100.6113 13.79283),2.387104764431542,True,False
20194,Chalongrat Expressway (ram Inthra-artnar,On Ramp Connection Lat Phrao (To Yothin Phatthana) - 8194,,13.79539,100.61273,14055,,POINT (100.61273 13.79539),2.7007397859161846,False,True
14012,Chalongrat Expressway (ram Inthra-artnar,Toll Pracha Uthit,,13.77189,100.60681,,20170,POINT (100.60681 13.77189),10.791154025434011,True,False
20170,Chalongrat Expressway (ram Inthra-artnar,To Pracha Uthit,,13.77124,100.60615,14012,,POINT (100.60615 13.77124),0.3565504835175661,False,True
45989,Chalongrat Expressway (ram Inthra-artnar,Toll Yothin Phatthana,,13.81613,100.62359,,20167,POINT (100.62359 13.81613),10.70793436700969,True,False
20167,Chalongrat Expressway (ram Inthra-artnar,On Ramp Connection Yothin Phatthana (To Lat Phrao) - 8167,,13.81458,100.62236,45989,,POINT (100.62236 13.81458),0.1595683893455973,False,True
14031,Chalongrat Expressway (ram Inthra-artnar,Artnarong 1 Back Toll Plaza (To Port 2),,13.70255,100.59257,,20181,POINT (100.59257 13.70255),5.449913543649125,True,False
20181,Chalongrat Expressway (ram Inthra-artnar,Sukhumwit 62 Hill (In 2) - 8181,,13.69888,100.59158,14031,,POINT (100.59158 13.69888),0.9703040534008588,False,True
14073,Chalongrat Expressway (ram Inthra-artnar,Artnarong Toll Plaza 2 (South),,13.70368,100.59278,,14034,POINT (100.59278 13.70368),11.580389712765527,True,False
14034,Chalongrat Expressway (ram Inthra-artnar,Artnarong Toll Plaza 2 (North),,13.70425,100.59321,14073,14035,POINT (100.59321 13.70425),12.640879181023323,True,True
14035,Chalongrat Expressway (ram Inthra-artnar,Phrakhanong Overpass,,13.7123,100.59884,14034,14037,POINT (100.59884 13.7123),3.8630073292730307,True,True
14037,Chalongrat Expressway (ram Inthra-artnar,Phrakhanong Curve (1),,13.71324,100.59942,14035,14038,POINT (100.59942 13.71324),0.478388179850255,True,True
14038,Chalongrat Expressway (ram Inthra-artnar,Phatthanakarn 1,,13.72433,100.60492,14037,14045,POINT (100.60492 13.72433),6.526311120493935,True,True
14045,Chalongrat Expressway (ram Inthra-artnar,Phatthanakarn Rd. Overpass (1),,13.73922,100.60449,14038,14042,POINT (100.60449 13.73922),1.7924863912773892,True,True
14042,Chalongrat Expressway (ram Inthra-artnar,Rama 9 (N2),,13.73985,100.60462,14045,,POINT (100.60462 13.73985),6.183320577108433,False,True
14032,Chalongrat Expressway (ram Inthra-artnar,Artnarong Front Toll Plaza (From Sukhumwit 62),,13.69803,100.5922,,20182,POINT (100.5922 13.69803),4.0072983693247535,True,False
20182,Chalongrat Expressway (ram Inthra-artnar,Artnarong 2 Back Toll Plaza - 8182,,13.70368,100.59278,14032,,POINT (100.59278 13.70368),11.580389712765527,False,True
45994,Chalongrat Expressway (ram Inthra-artnar,Pracha Uthit,,13.77233,100.60703,,20169,POINT (100.60703 13.77233),9.426983707548795,True,False
20169,Chalongrat Expressway (ram Inthra-artnar,To Toll Pracha Uthit,,13.77189,100.60681,45994,,POINT (100.60681 13.77189),10.791154025434011,False,True
14070,Chalongrat Expressway (ram Inthra-artnar,Ram Inthra (From Ram Inthra Rd.),,13.85023,100.6409,,20199,POINT (100.6409 13.85023),5.687694060757314,True,False
20199,Chalongrat Expressway (ram Inthra-artnar,On Ramp Connection Ram Inthra (From Ram Inthra Rd.) - 8199,,13.84861,100.63922,14070,,POINT (100.63922 13.84861),0.44569653038752066,False,True
14024,Chalongrat Expressway (ram Inthra-artnar,Phatthanakarn Rd. Overpass (2),,13.73978,100.60478,,14027,POINT (100.60478 13.73978),0.5403346731438001,True,False
14027,Chalongrat Expressway (ram Inthra-artnar,Phrakhanong Curve (2),,13.7387,100.60454,14024,14028,POINT (100.60454 13.7387),2.9697934226507665,True,True
14028,Chalongrat Expressway (ram Inthra-artnar,Sukhumvit 50,,13.72393,100.60514,14027,14072,POINT (100.60514 13.72393),7.993861714217911,True,True
14072,Chalongrat Expressway (ram Inthra-artnar,Artnarong 1 Back Toll Plaza (To Port 1),,13.71007,100.59755,14028,14074,POINT (100.59755 13.71007),4.5881034009106285,True,True
14074,Chalongrat Expressway (ram Inthra-artnar,Artnarong Toll Plaza (To Port)/Exit Bit 1,,13.70408,100.59356,14072,14080,POINT (100.59356 13.70408),2.6473526339541027,True,True
14080,Chalongrat Expressway (ram Inthra-artnar,Artnarong 3 Toll Plaza (To Bangna),,13.70255,100.59257,14074,,POINT (100.59257 13.70255),5.449913543649125,False,True
14060,Chalongrat Expressway (ram Inthra-artnar,Pradit Manutham Road,,13.84105,100.63475,,20196,POINT (100.63475 13.84105),1.0479544446876556,True,False
20196,Chalongrat Expressway (ram Inthra-artnar,Off Ramp Connection Pradit Manutham Rd. - 8196,,13.84388,100.636,14060,,POINT (100.636 13.84388),9.014863222710662,False,True
14051,Chalongrat Expressway (ram Inthra-artnar,Lat Phrao (Pracha Uthit),,13.75953,100.596,,14053,POINT (100.596 13.75953),4.5438270387019415,True,False
14053,Chalongrat Expressway (ram Inthra-artnar,Pracha Uthit Hill,,13.77054,100.60497,14051,14054,POINT (100.60497 13.77054),0.04326207933672456,True,True
14054,Chalongrat Expressway (ram Inthra-artnar,Lat Phrao Rd. Overpass (S1),,13.78664,100.60868,14053,14056,POINT (100.60868 13.78664),0.8646571950140536,True,True
14056,Chalongrat Expressway (ram Inthra-artnar,On Ramp Connection Lat Phrao (To Yothin Phatthana) - 1042,,13.79539,100.61273,14054,14066,POINT (100.61273 13.79539),2.7007397859161846,True,True
14066,Chalongrat Expressway (ram Inthra-artnar,Kasetsart - Navamin,,13.80945,100.6191,14056,14058,POINT (100.6191 13.80945),6.408634931267144,True,True
14058,Chalongrat Expressway (ram Inthra-artnar,Yothin Phatthana (To Kasetsart - Navamin),,13.81467,100.62214,14066,14059,POINT (100.62214 13.81467),3.2090025097714263,True,True
14059,Chalongrat Expressway (ram Inthra-artnar,Kasetsart-Navamin Overpass (Ram Intra 2),,13.82591,100.6281,14058,14063,POINT (100.6281 13.82591),0.7011742926038129,True,True
14063,Chalongrat Expressway (ram Inthra-artnar,Ram Inthra,,13.83544,100.63186,14059,14067,POINT (100.63186 13.83544),1.7247854945655203,True,True
14067,Chalongrat Expressway (ram Inthra-artnar,To Pradit Manutham Rd.,,13.84105,100.63475,14063,14076,POINT (100.63475 13.84105),1.0479544446876556,True,True
14076,Chalongrat Expressway (ram Inthra-artnar,Ram Inthra-Atnarong Expressway,,13.85165,100.64049,14067,,POINT (100.64049 13.85165),1.6742044862466006,False,True
14065,Chalongrat Expressway (ram Inthra-artnar,Lat Phrao (From Lat Phrao Rd.),,13.79098,100.61045,,20198,POINT (100.61045 13.79098),1.1058902609487815,True,False
20198,Chalongrat Expressway (ram Inthra-artnar,Toll Lat Phrao,,13.79283,100.6113,14065,,POINT (100.6113 13.79283),2.387104764431542,False,True
14026,Chalongrat Expressway (ram Inthra-artnar,To Phatthanakarn 1,,13.73916,100.60478,,20178,POINT (100.60478 13.73916),2.573244066137243,True,False
20178,Chalongrat Expressway (ram Inthra-artnar,Phrakhanong Curve - 8178,,13.7387,100.60454,14026,,POINT (100.60454 13.7387),2.9697934226507665,False,True
14041,Chalongrat Expressway (ram Inthra-artnar,To Phatthanakarn 2,,13.73972,100.60452,,20187,POINT (100.60452 13.73972),2.343430766053421,True,False
20187,Chalongrat Expressway (ram Inthra-artnar,Rama 9 (N2),,13.73985,100.60462,14041,,POINT (100.60462 13.73985),6.183320577108433,False,True
14064,Chalongrat Expressway (ram Inthra-artnar,To Phra Khanong,,13.71139,100.59794,,20197,POINT (100.59794 13.71139),1.0265064552051553,True,False
20197,Chalongrat Expressway (ram Inthra-artnar,Phrakhanong Curve - 8197,,13.71324,100.59942,14064,,POINT (100.59942 13.71324),0.478388179850255,False,True
14050,Chalongrat Expressway (ram Inthra-artnar,To Rama 9-2,,13.75941,100.5958,,20192,POINT (100.5958 13.75941),8.017575349632056,True,False
20192,Chalongrat Expressway (ram Inthra-artnar,Lat Phrao (Pracha Uthit),,13.75953,100.596,14050,,POINT (100.596 13.75953),4.5438270387019415,False,True
45988,Chalongrat Expressway (ram Inthra-artnar,To Yothin Phathana (From Ram Inthra),,13.81737,100.62434,,20166,POINT (100.62434 13.81737),2.2715215499259265,True,False
20166,Chalongrat Expressway (ram Inthra-artnar,Toll Yothin Phatthana,,13.81613,100.62359,45988,,POINT (100.62359 13.81613),10.70793436700969,False,True
14052,Chalongrat Expressway (ram Inthra-artnar,To Lat Phrao (Pracha Uthid),,13.77054,100.60497,,20193,POINT (100.60497 13.77054),0.04326207933672456,True,False
20193,Chalongrat Expressway (ram Inthra-artnar,To Lat Phrao (Pracha Uthid) - 8193,,13.77244,100.6059,14052,,POINT (100.6059 13.77244),0.4684618890705189,False,True
14023,Chalongrat Expressway (ram Inthra-artnar,To Phatthanakarn,,13.73978,100.60478,,20176,POINT (100.60478 13.73978),0.5403346731438001,True,False
20176,Chalongrat Expressway (ram Inthra-artnar,To Phatthanakarn Rd. - 8176,,13.73932,100.60484,14023,,POINT (100.60484 13.73932),2.4712114328122743,False,True
14039,Chalongrat Expressway (ram Inthra-artnar,To Phatthanakarn 1,,13.73922,100.60449,,20185,POINT (100.60449 13.73922),1.7924863912773892,True,False
20185,Chalongrat Expressway (ram Inthra-artnar,To Phatthanakarn - 8185,,13.73957,100.60446,14039,,POINT (100.60446 13.73957),3.346180813125748,False,True
14029,Chalongrat Expressway (ram Inthra-artnar,To Sukhumwit 50,,13.71007,100.59755,,20179,POINT (100.59755 13.71007),4.5881034009106285,True,False
20179,Chalongrat Expressway (ram Inthra-artnar,To Sukhumwit 50 - 8179,,13.7082,100.59694,14029,,POINT (100.59694 13.7082),0.5336825938356455,False,True
14025,Chalongrat Expressway (ram Inthra-artnar,Phatthanakarn 1 Front Toll Plaza,,13.7393,100.60494,,20177,POINT (100.60494 13.7393),0.4047164701895691,True,False
20177,Chalongrat Expressway (ram Inthra-artnar,To Phatthanakarn,,13.73916,100.60478,14025,,POINT (100.60478 13.73916),2.573244066137243,False,True
14040,Chalongrat Expressway (ram Inthra-artnar,Phatthanakarn 2 Front Toll Plaza,,13.73959,100.60438,,20186,POINT (100.60438 13.73959),1.791862509343956,True,False
20186,Chalongrat Expressway (ram Inthra-artnar,Phatthanakarn,,13.73972,100.60452,14040,,POINT (100.60452 13.73972),2.343430766053421,False,True
14036,Chalongrat Expressway (ram Inthra-artnar,Phra Khanong Front Toll Plaza (1),,13.71128,100.5968,,20184,POINT (100.5968 13.71128),1.3607748972703229,True,False
20184,Chalongrat Expressway (ram Inthra-artnar,To Phra Khanong,,13.71139,100.59794,14036,,POINT (100.59794 13.71139),1.0265064552051553,False,True
14033,Chalongrat Expressway (ram Inthra-artnar,Phra Khanong Front Toll Plaza (2),,13.70692,100.59731,,20183,POINT (100.59731 13.70692),7.3296474793135165,True,False
20183,Chalongrat Expressway (ram Inthra-artnar,Phra Khanong,,13.71139,100.59794,14033,,POINT (100.59794 13.71139),1.0265064552051553,False,True
14049,Chalongrat Expressway (ram Inthra-artnar,Rama 9-2 Back Toll Plaza,,13.75937,100.59558,,20191,POINT (100.59558 13.75937),0.36560589629224227,True,False
20191,Chalongrat Expressway (ram Inthra-artnar,To Rama 9,,13.75941,100.5958,14049,,POINT (100.5958 13.75941),8.017575349632056,False,True
14068,Chalongrat Expressway (ram Inthra-artnar,Ram Inthra-Atnarong Expressway,,13.85148,100.64075,,14069,POINT (100.64075 13.85148),1.1945292591543402,True,False
14069,Chalongrat Expressway (ram Inthra-artnar,Ram Inthra (From Ram Inthra Rd.),,13.84861,100.63922,14068,14071,POINT (100.63922 13.84861),0.44569653038752066,True,True
14071,Chalongrat Expressway (ram Inthra-artnar,Ram Inthra (From Pradit Manutham Rd.),,13.84611,100.63789,14069,14061,POINT (100.63789 13.84611),4.495920973950844,True,True
14061,Chalongrat Expressway (ram Inthra-artnar,Ram Inthra ( 1 K.M.),,13.84381,100.63662,14071,45986,POINT (100.63662 13.84381),1.578760478769351,True,True
45986,Chalongrat Expressway (ram Inthra-artnar,Before Kasetsart-Navamin Overpass ( 1 K.M. ) - 2042,,13.8354,100.63205,14061,45987,POINT (100.63205 13.8354),6.303164610024589,True,True
45987,Chalongrat Expressway (ram Inthra-artnar,Kasetsart-Navamin Overpass (Lat Phrao 1),,13.82575,100.62832,45986,14062,POINT (100.62832 13.82575),0.6427317488968483,True,True
14062,Chalongrat Expressway (ram Inthra-artnar,On Ramp Connection Yothin Phatthana (To Lat Phrao) - 2042,,13.81458,100.62236,45987,,POINT (100.62236 13.81458),0.1595683893455973,False,True
45992,Chalongrat Expressway (ram Inthra-artnar,Lat Phrao,,13.79527,100.61293,,45993,POINT (100.61293 13.79527),3.565362712799413,True,False
45993,Chalongrat Expressway (ram Inthra-artnar,Lat Phrao Rd. - Pradit Manutham Rd. Overpass - 2042,,13.7864,100.60891,45992,14013,POINT (100.60891 13.7864),1.2559500757133086,True,True
14013,Chalongrat Expressway (ram Inthra-artnar,Pracha Uthit,,13.77124,100.60615,45993,14015,POINT (100.60615 13.77124),0.3565504835175661,True,True
14015,Chalongrat Expressway (ram Inthra-artnar,Ram Khamhang Overpass,,13.75969,100.59647,14013,14016,POINT (100.59647 13.75969),2.1826498431923036,True,True
14016,Chalongrat Expressway (ram Inthra-artnar,Center Control 3 Front Toll Plaza (Out 1),,13.75854,100.59625,14015,,POINT (100.59625 13.75854),7.962230302745754,False,True
14030,Chalongrat Expressway (ram Inthra-artnar,Sukhumwit 50 Artnarong Barrier,,13.7058,100.59783,,20180,POINT (100.59783 13.7058),8.204391789703465,True,False
20180,Chalongrat Expressway (ram Inthra-artnar,Phra Khanong Front Toll Plaza - 8180,,13.70692,100.59731,14030,,POINT (100.59731 13.70692),7.3296474793135165,False,True
46356,Chan 16,Chan Road,,13.70542,100.53226,,46357,POINT (100.53226 13.70542),0.6310026328553282,True,False
46357,Chan 16,Naradhiwas Rajanagarindra 14,,13.71077,100.5301,46356,,POINT (100.5301 13.71077),3.1896935969317206,False,True
46359,Chan 43,Soi Chan 43 Yaek 27,,13.70253,100.52272,,46360,POINT (100.52272 13.70253),0.04879385338364453,True,False
46360,Chan 43,Chan Road,,13.70776,100.51947,46359,,POINT (100.51947 13.70776),7.332090732454652,False,True
29000,Chan Road,Trok Chan Intersection-543,,13.71012,100.51132,,29001,POINT (100.51132 13.71012),0.9876285192944145,True,False
29001,Chan Road,Soi Chan 42,,13.70885,100.515,29000,29002,POINT (100.515 13.70885),2.2176616027481146,True,True
29002,Chan Road,Charoenrach Rd.-543,,13.7079,100.51862,29001,29003,POINT (100.51862 13.7079),0.2920696013413544,True,True
29003,Chan Road,Soi Chan 35/1,,13.70701,100.52303,29002,29004,POINT (100.52303 13.70701),1.9132150937443073,True,True
29004,Chan Road,Soi Phramae Mari,,13.70629,100.52678,29003,29005,POINT (100.52678 13.70629),0.23939786054874607,True,True
29005,Chan Road,Sathu-chan Junction-543,,13.7059,100.52865,29004,29006,POINT (100.52865 13.7059),0.5572131501423302,True,True
29006,Chan Road,Soi Chan 16,,13.7054,100.5323,29005,29007,POINT (100.5323 13.7054),1.3167191511725327,True,True
29007,Chan Road,Chan Rd. Cross Narathiwat Ratchanakharin Rd.,,13.70712,100.53762,29006,29008,POINT (100.53762 13.70712),5.393638646947479,True,True
29008,Chan Road,Chan Mai Cross Nanglinchi Rd.,,13.71026,100.54201,29007,,POINT (100.54201 13.71026),5.839954186970734,False,True
46361,Chanthra Suk,Soi Lad Phrao 87,,13.79954,100.61959,,46362,POINT (100.61959 13.79954),8.883906852537963,True,False
46362,Chanthra Suk,Pradit Manutham Road,,13.80292,100.61639,46361,,POINT (100.61639 13.80292),0.12436009004703569,False,True
22031,Charan Sanitwong Road,Tha Phra Intersection-638,,13.7294,100.47417,,22006,POINT (100.47417 13.7294),2.0492382864139276,True,False
22006,Charan Sanitwong Road,Sesawet Witthaya School,,13.73727,100.471,22031,22007,POINT (100.471 13.73727),4.043215938873897,True,True
22007,Charan Sanitwong Road,Phanitchayakan Thon Buri Junction,,13.74143,100.47058,22006,22008,POINT (100.47058 13.74143),4.330370565466611,True,True
22008,Charan Sanitwong Road,Pracha Ruamchai Intersection,,13.7483,100.47,22007,22009,POINT (100.47 13.7483),7.208951407069074,True,True
22009,Charan Sanitwong Road,Fai Chai Junction,,13.7548,100.46943,22008,22010,POINT (100.46943 13.7548),1.681516963000924,True,True
22010,Charan Sanitwong Road,Wat Mali Junction,,13.75948,100.47003,22009,22011,POINT (100.47003 13.75948),7.174822762726739,True,True
22011,Charan Sanitwong Road,Bang Khun Non Junction,,13.76397,100.47386,22010,22012,POINT (100.47386 13.76397),4.95802993445774,True,True
22012,Charan Sanitwong Road,Borommaratchachonnani Intersection-638,,13.77338,100.48183,22011,22013,POINT (100.48183 13.77338),0.9755239580378853,True,True
22013,Charan Sanitwong Road,Soi Charansanitwong 44,,13.77856,100.48629,22012,22014,POINT (100.48629 13.77856),0.5182412838572003,True,True
22014,Charan Sanitwong Road,Bang Phlat Intersection-638,,13.78456,100.49449,22013,22015,POINT (100.49449 13.78456),0.15192356451897526,True,True
22015,Charan Sanitwong Road,Phanu Rangsi Junction,,13.78831,100.5004,22014,22016,POINT (100.5004 13.78831),6.729943995315642,True,True
22016,Charan Sanitwong Road,Communicatio 72 Office Bangphlat,,13.79093,100.50387,22015,22017,POINT (100.50387 13.79093),1.0567100427663687,True,True
22017,Charan Sanitwong Road,Soi Charansanitwong 85,,13.79485,100.50674,22016,22018,POINT (100.50674 13.79485),6.998641371773815,True,True
22018,Charan Sanitwong Road,Bang O Junction,,13.79959,100.51025,22017,22019,POINT (100.51025 13.79959),5.398150646849553,True,True
22019,Charan Sanitwong Road,Phra Ram 6 Tech. School,,13.80378,100.51204,22018,22020,POINT (100.51204 13.80378),5.101689826120417,True,True
22020,Charan Sanitwong Road,Pramuk Witthaya School,,13.80829,100.51102,22019,22021,POINT (100.51102 13.80829),3.574769249190962,True,True
22021,Charan Sanitwong Road,Rama 7 Bridge-638,,13.80936,100.51085,22020,,POINT (100.51085 13.80936),1.6101740167772187,False,True
46367,Charat Mueang Road,Rong Mueang Road,,13.74331,100.51785,,46368,POINT (100.51785 13.74331),0.314652653008097,True,False
46368,Charat Mueang Road,Banthat Thong Road,,13.7423,100.52282,46367,,POINT (100.52282 13.7423),1.479736309792693,False,True
46369,Charoen Krung 82,Soi Pracha Uthit 54,,13.64035,100.49402,,46370,POINT (100.49402 13.64035),7.279793433992045,True,False
46370,Charoen Krung 82,Pracha Uthit 54,,13.64219,100.49496,46369,,POINT (100.49496 13.64219),0.5537795361113804,False,True
46371,Charoen Rat 10,Charoen Krung 107 Yaek 15-2,,13.69473,100.50448,,46372,POINT (100.50448 13.69473),2.355028933857532,True,False
46372,Charoen Rat 10,Soi Chalaem Nimit,,13.69322,100.5079,46371,46373,POINT (100.5079 13.69322),2.865370037842667,True,True
46373,Charoen Rat 10,Charoen Rat Road,,13.69214,100.51077,46372,,POINT (100.51077 13.69214),0.038007979621851956,False,True
46380,Charoen Rat 7 (West),Soi Pradu 1,,13.69012,100.51744,,46381,POINT (100.51744 13.69012),2.65941364284882,True,False
46381,Charoen Rat 7 (West),Soi Rat Uthit 1,,13.6886,100.5199,46380,46382,POINT (100.5199 13.6886),2.0293772028912156,True,True
46382,Charoen Rat 7 (West),Ratchada Phisek Road,,13.6876,100.52144,46381,,POINT (100.52144 13.6876),1.236217684213158,False,True
46383,Charoen Rat 7,Chalerm Maha Nakhon Expressway,,13.68743,100.52177,,46384,POINT (100.52177 13.68743),6.184560557387451,True,False
46384,Charoen Rat 7,Sathu Pradit 58,,13.68692,100.52294,46383,,POINT (100.52294 13.68692),2.8187704303807313,False,True
46385,Charoen Rat 8,Soi Chalaem Nimit,,13.70487,100.51457,,46386,POINT (100.51457 13.70487),0.4103925885209036,True,False
46386,Charoen Rat 8,Charoen Rat Road,,13.70411,100.51738,46385,,POINT (100.51738 13.70411),2.6125497209576976,False,True
35000,Charoen Krung Road,Thai Wang Junction-555,,13.74735,100.49441,,35009,POINT (100.49441 13.74735),6.714982480966578,True,False
35009,Charoen Krung Road,Saphan Mon Intersection,,13.74724,100.49627,35000,35001,POINT (100.49627 13.74724),6.355339601619977,True,True
35001,Charoen Krung Road,Si Kak Phraya Si Intersection-555,,13.74721,100.49767,35009,35002,POINT (100.49767 13.74721),1.9566762304304264,True,True
35002,Charoen Krung Road,Chaloem Krung Intersection-555,,13.74711,100.49974,35001,35010,POINT (100.49974 13.74711),0.5748768677969781,True,True
35010,Charoen Krung Road,Unakan Intersection,,13.74705,100.50107,35002,35003,POINT (100.50107 13.74705),0.8759370682103836,True,True
35003,Charoen Krung Road,Sam Yot Intersection-555,,13.74695,100.5032,35010,35011,POINT (100.5032 13.74695),0.41371218043338787,True,True
35011,Charoen Krung Road,Paribatra Road,,13.7467,100.50418,35003,35004,POINT (100.50418 13.7467),1.7606045200223603,True,True
35004,Charoen Krung Road,S.a.b Intersection-555,,13.74561,100.50566,35011,35012,POINT (100.50566 13.74561),2.1282723072041185,True,True
35012,Charoen Krung Road,Mahachak Road,,13.74475,100.50675,35004,35005,POINT (100.50675 13.74475),2.348663913478789,True,True
35005,Charoen Krung Road,Suea Pa Intersection-555,,13.74379,100.508,35012,35013,POINT (100.508 13.74379),0.053837242012663156,True,True
35013,Charoen Krung Road,Bank of Ayudhya Siyaek Suea Pa,,13.7431,100.50887,35005,35006,POINT (100.50887 13.7431),0.3864682507762517,True,True
35006,Charoen Krung Road,Plaeng Nam Intersection,,13.74187,100.51043,35013,35007,POINT (100.51043 13.74187),0.11512797572162009,True,True
35007,Charoen Krung Road,Mo Mi Junction-555,,13.7404,100.51227,35006,35008,POINT (100.51227 13.7404),0.3353617314084802,True,True
35008,Charoen Krung Road,Maitri Chit Junction-555,,13.73808,100.51541,35007,,POINT (100.51541 13.73808),3.5864039097204246,False,True
28501,Charoen Krung Road,Tok Intersection-542 Road,,13.69716,100.49708,,28502,POINT (100.49708 13.69716),0.050125124842904926,True,False
28502,Charoen Krung Road,Wat Phraya Krai Metropolitan Police Station,,13.70197,100.50251,28501,28503,POINT (100.50251 13.70197),12.002340269393937,True,True
28503,Charoen Krung Road,Charoenkrung 85,,13.70692,100.50784,28502,28504,POINT (100.50784 13.70692),2.1558509096718383,True,True
28504,Charoen Krung Road,Trok Chan Intersection-542,,13.71012,100.51132,28503,28505,POINT (100.51132 13.71012),0.9876285192944145,True,True
28505,Charoen Krung Road,Don Kuson Junction,,13.71539,100.51375,28504,28506,POINT (100.51375 13.71539),2.512591685259259,True,True
28506,Charoen Krung Road,Chaloemphan Intersection,,13.71862,100.51514,28505,28507,POINT (100.51514 13.71862),0.8094012208228636,True,True
28507,Charoen Krung Road,Bang Rak Junction-542,,13.72218,100.51667,28506,28508,POINT (100.51667 13.72218),0.06838111553183847,True,True
28508,Charoen Krung Road,Surawong Intersection-542,,13.72543,100.51623,28507,28509,POINT (100.51623 13.72543),2.5047074458325693,True,True
28509,Charoen Krung Road,Si Phraya Intersection,,13.73015,100.51566,28508,28514,POINT (100.51566 13.73015),1.6853671838733117,True,True
28514,Charoen Krung Road,Phithaya Sathian Bridge,,13.73174,100.51537,28509,28510,POINT (100.51537 13.73174),3.660331239247697,True,True
28510,Charoen Krung Road,Charoenkrung Rd. Cross Songwat Rd.,,13.73622,100.51358,28514,28513,POINT (100.51358 13.73622),2.4858759462964106,True,True
28513,Charoen Krung Road,SCIB Bank,,13.73785,100.51306,28510,28511,POINT (100.51306 13.73785),3.6196131035068984,True,True
28511,Charoen Krung Road,Lamphun Chai Intersection,,13.7393,100.51261,28513,28512,POINT (100.51261 13.7393),1.4221867509206259,True,True
28512,Charoen Krung Road,Mo Mi Junction-542,,13.7404,100.51227,28511,,POINT (100.51227 13.7404),0.3353617314084802,False,True
27500,Charoen Nakhon Road,Soi Rat Burana 1,,13.69347,100.48667,,27501,POINT (100.48667 13.69347),0.5806481750127326,True,False
27501,Charoen Nakhon Road,Bukkhalo Intersection,,13.70307,100.48853,27500,27502,POINT (100.48853 13.70307),0.657121962698889,True,True
27502,Charoen Nakhon Road,Charoennakhon 60,,13.70636,100.49101,27501,27503,POINT (100.49101 13.70636),2.2475012500541083,True,True
27503,Charoen Nakhon Road,Charoennakhon 46,,13.7098,100.4966,27502,27504,POINT (100.4966 13.7098),6.336921488795514,True,True
27504,Charoen Nakhon Road,Charoennakhon 40,,13.7109,100.49842,27503,27505,POINT (100.49842 13.7109),1.7788058591928257,True,True
27505,Charoen Nakhon Road,Charoen Nakhon 28,,13.71383,100.50394,27504,27506,POINT (100.50394 13.71383),4.734672983390071,True,True
27506,Charoen Nakhon Road,Sai Chon Hotel,,13.71635,100.5068,27505,27507,POINT (100.5068 13.71635),0.502883584846842,True,True
27507,Charoen Nakhon Road,Charoen Nakhon Tai Junction,,13.71873,100.50822,27506,27508,POINT (100.50822 13.71873),5.268196311111808,True,True
27508,Charoen Nakhon Road,Charoen Nakhon Nuea Junction,,13.72146,100.50889,27507,27509,POINT (100.50889 13.72146),4.675989213979031,True,True
27509,Charoen Nakhon Road,Charoen Nakhon Art House School,,13.72522,100.50917,27508,27514,POINT (100.50917 13.72522),3.214380997145562,True,True
27514,Charoen Nakhon Road,Khlong San Intersection-540,,13.72999,100.50873,27509,,POINT (100.50873 13.72999),1.3990984535775626,False,True
46387,Charoen Nakhon Road,Ratburana Road,,13.69012,100.4876,,46388,POINT (100.4876 13.69012),3.234270898114188,True,False
46388,Charoen Nakhon Road,Soi Rat Burana 1,,13.69347,100.48667,46387,,POINT (100.48667 13.69347),0.5806481750127326,False,True
31501,Charoen Rat Road,Charoenrat-rama 3 Intersection-548,,13.68959,100.5095,,31502,POINT (100.5095 13.68959),4.6857296997936215,True,False
31502,Charoen Rat Road,Soi Yudi 2,,13.69972,100.51509,31501,31503,POINT (100.51509 13.69972),8.590199793788964,True,True
31503,Charoen Rat Road,Soi Chalaem Nimit,,13.7041,100.51745,31502,31504,POINT (100.51745 13.7041),6.268019643773912,True,True
31504,Charoen Rat Road,Charoenrach Rd.-548,,13.7079,100.51862,31503,31531,POINT (100.51862 13.7079),0.2920696013413544,True,True
31531,Charoen Rat Road,Soi Charoenkrung 57-548,,13.71378,100.52014,31504,,POINT (100.52014 13.71378),4.026092107917759,False,True
46389,Chatuchak Weekend Market North,Kamphaengphet 2 Road,,13.80325,100.54835,,46390,POINT (100.54835 13.80325),5.390924051625735,True,False
46390,Chatuchak Weekend Market North,Kamphaeng Phet 3 Road,,13.80294,100.55203,46389,,POINT (100.55203 13.80294),0.5769645856628433,False,True
46391,Chimphli 2,Ratchaphruek Road/Chimphli 2 Road,,13.78369,100.44328,,46392,POINT (100.44328 13.78369),3.392899483940577,True,False
46392,Chimphli 2,338,,13.78058,100.44531,46391,,POINT (100.44531 13.78058),2.2039696626116347,False,True
46393,Chimphli 2 Road,Chim Phli Road,,13.78667,100.43948,,46394,POINT (100.43948 13.78667),5.784241375503032,True,False
46394,Chimphli 2 Road,Ratchaphruek Road/Chimphli 2 Road,,13.78369,100.44328,46393,,POINT (100.44328 13.78369),3.392899483940577,False,True
52931,Kaeo Ngoen Thong Road,Wat Kaeo Bridge,,13.75654,100.45912,,46395,POINT (100.45912 13.75654),2.670172836396201,True,False
46395,Kaeo Ngoen Thong Road,Bang Phrom Road,,13.75569,100.45436,52931,46396,POINT (100.45436 13.75569),0.8275147665684899,True,True
46396,Kaeo Ngoen Thong Road,Kaeo Ngoen Thong 29,,13.76181,100.45323,46395,46397,POINT (100.45323 13.76181),1.0543256131055823,True,True
46397,Kaeo Ngoen Thong Road,Kaeo Ngoen Thong 32,,13.76966,100.45109,46396,,POINT (100.45109 13.76966),1.4484234054657654,False,True
46398,Chitchon Road,Ngamwongwan47 Yaek42 Chinket 2/40,,13.87005,100.56061,,46399,POINT (100.56061 13.87005),6.104943213321382,True,False
46399,Chitchon Road,Kampaeng Phet 6 Road,,13.8667,100.57086,46398,46400,POINT (100.57086 13.8667),3.3055750607639576,True,True
46400,Chitchon Road,Uttaraphimuk Elevated Tollway,,13.86618,100.57153,46399,,POINT (100.57153 13.86618),2.6765124182635116,False,True
46409,Chok Chai 4 Soi 84,Chok Chai 4 Road (West),,13.82484,100.59441,,46410,POINT (100.59441 13.82484),3.023853073343857,True,False
46410,Chok Chai 4 Soi 84,Chok Chai 4 Road (East),,13.82502,100.59638,46409,,POINT (100.59638 13.82502),3.27369591912607,False,True
46411,Chok Chai 4 Road,Chok Chai 4 Road,,13.81938,100.59624,,46412,POINT (100.59624 13.81938),8.164976983827406,True,False
46412,Chok Chai 4 Road,Satri Witthaya 2 Road/Chok Chai 4 Soi 69,,13.82062,100.59627,46411,46413,POINT (100.59627 13.82062),1.250847034276405,True,True
46413,Chok Chai 4 Road,Chok Chai 4 Soi 84,,13.82502,100.59638,46412,,POINT (100.59638 13.82502),3.27369591912607,False,True
46414,Chom Thong 19,Rama 2 Soi 28,,13.69794,100.46847,,46415,POINT (100.46847 13.69794),11.519613266961798,True,False
46415,Chom Thong 19,Chom Thong Road,,13.69902,100.4692,46414,,POINT (100.4692 13.69902),3.875726647413058,False,True
46438,Din Daeng,Chaturathit Road,,13.7553,100.55293,,46439,POINT (100.55293 13.7553),1.1804898012950056,True,False
46439,Din Daeng,Din Daeng Road,,13.76046,100.55485,46438,,POINT (100.55485 13.76046),5.319094337896501,False,True
18504,Din Daeng Road,Phibun Prachason School-676,,13.76195,100.55191,,18505,POINT (100.55191 13.76195),4.898908145371804,True,False
18505,Din Daeng Road,Pracha Songkhro Intersection-676,,13.76048,100.55487,18504,18506,POINT (100.55487 13.76048),2.4058980450776546,True,True
18506,Din Daeng Road,Soi Sutthiporn 2,,13.75763,100.55741,18505,18507,POINT (100.55741 13.75763),0.34732607146230515,True,True
18507,Din Daeng Road,Soi Phophan,,13.75631,100.56213,18506,18508,POINT (100.56213 13.75631),2.4221826542900744,True,True
18508,Din Daeng Road,Rama 9 Intersection-676,,13.7561,100.56492,18507,18517,POINT (100.56492 13.7561),2.414413241535965,True,True
18517,Din Daeng Road,MCOT Intersection-676,,13.75574,100.56973,18508,,POINT (100.56973 13.75574),1.4219684503185326,False,True
44509,Din So Nue Rd.,Bangkok Intersection-673,,13.75339,100.50111,,44510,POINT (100.50111 13.75339),3.3133942718809477,True,False
44510,Din So Nue Rd.,Democracy Monument-673,,13.75625,100.50176,44509,,POINT (100.50176 13.75625),7.669516090371221,False,True
36000,Dinso Rd.,Democracy Monument-557,,13.7571,100.50198,,36010,POINT (100.50198 13.7571),8.577662547206891,True,False
36010,Dinso Rd.,Saphan Wan Chat Intersection-557,,13.75942,100.50249,36000,,POINT (100.50249 13.75942),0.27249590627844,False,True
19817,Donmuang - Rang Sit tollway Overpass,Donmuang (2),,13.95322,100.62043,,19835,POINT (100.62043 13.95322),7.036684530912078,True,False
19835,Donmuang - Rang Sit tollway Overpass,National Memorial,,13.95178,100.6196,19817,,POINT (100.6196 13.95178),2.304574637025562,False,True
19833,Donmuang - Rang Sit tollway Overpass,National Memorial,,13.95187,100.61934,,19709,POINT (100.61934 13.95187),6.119299788447654,True,False
19709,Donmuang - Rang Sit tollway Overpass,Sia Rang Sit Overpass (1),,13.9524,100.61964,19833,,POINT (100.61964 13.9524),10.136559025012248,False,True
19700,Donmuang - Rang Sit tollway Overpass,Dindaeng Flat (2),,13.76869,100.55061,,19702,POINT (100.55061 13.76869),4.132289278146686,True,False
19702,Donmuang - Rang Sit tollway Overpass,Yaek Lat Phrao Overpass (1),,13.80478,100.56011,19700,19801,POINT (100.56011 13.80478),1.7400918839229886,True,True
19801,Donmuang - Rang Sit tollway Overpass,Ratchayothin,,13.82648,100.55784,19702,19802,POINT (100.55784 13.82648),2.597539072873136,True,True
19802,Donmuang - Rang Sit tollway Overpass,Prachaniwet 1 Road,,13.83824,100.55725,19801,19803,POINT (100.55725 13.83824),1.22175991682062,True,True
19803,Donmuang - Rang Sit tollway Overpass,Yaek Bang Khen Overpass (1),,13.84428,100.55963,19802,19705,POINT (100.55963 13.84428),0.6693938153513619,True,True
19705,Donmuang - Rang Sit tollway Overpass,Ngamwongwan,,13.85171,100.56367,19803,19804,POINT (100.56367 13.85171),0.35084060197175887,True,True
19804,Donmuang - Rang Sit tollway Overpass,Bang Khen - Laksi Overpass,,13.85404,100.56493,19705,19805,POINT (100.56493 13.85404),2.826996705455065,True,True
19805,Donmuang - Rang Sit tollway Overpass,Laksi,,13.8755,100.57657,19804,19806,POINT (100.57657 13.8755),0.9024491849411058,True,True
19806,Donmuang - Rang Sit tollway Overpass,Yaek Laksi Overpass (1),,13.87655,100.57715,19805,19807,POINT (100.57715 13.87655),1.0262347727277021,True,True
19807,Donmuang - Rang Sit tollway Overpass,Lak Si (1),,13.88844,100.58388,19806,19808,POINT (100.58388 13.88844),3.237484442810578,True,True
19808,Donmuang - Rang Sit tollway Overpass,Laksi - Donmuang Overpass,,13.89167,100.58576,19807,19809,POINT (100.58576 13.89167),0.07757383462456122,True,True
19809,Donmuang - Rang Sit tollway Overpass,Donmuang (1),,13.92146,100.6022,19808,19810,POINT (100.6022 13.92146),4.185112268312885,True,True
19810,Donmuang - Rang Sit tollway Overpass,Donmuang - Yaek Thuppatemi Overpass,,13.92369,100.60355,19809,19811,POINT (100.60355 13.92369),3.9663983352047167,True,True
19811,Donmuang - Rang Sit tollway Overpass,Yaek Thuppatemi Overpass (1),,13.93269,100.60859,19810,19812,POINT (100.60859 13.93269),4.698426864912376,True,True
19812,Donmuang - Rang Sit tollway Overpass,Donmuang - Zeer (Rang sit),,13.94751,100.6169,19811,19832,POINT (100.6169 13.94751),4.520899689070438,True,True
19832,Donmuang - Rang Sit tollway Overpass,National Memorial,,13.95187,100.61934,19812,,POINT (100.61934 13.95187),6.119299788447654,False,True
19701,Donmuang - Rang Sit tollway Overpass,Din Daeng (2),,13.80367,100.56014,,20379,POINT (100.56014 13.80367),1.0029034350329489,True,False
20379,Donmuang - Rang Sit tollway Overpass,To Yaek Lat Phrao Overpass (1) - 8379,,13.80478,100.56011,19701,,POINT (100.56011 13.80478),1.7400918839229886,False,True
19724,Donmuang - Rang Sit tollway Overpass,Donmuang,,13.95142,100.61895,,20393,POINT (100.61895 13.95142),3.6615531102468273,True,False
20393,Donmuang - Rang Sit tollway Overpass,To Sia Rang Sit Overpass (1) (8393),,13.9524,100.61964,19724,,POINT (100.61964 13.9524),10.136559025012248,False,True
19707,Donmuang - Rang Sit tollway Overpass,Lak Si (1),,13.89075,100.58512,,20383,POINT (100.58512 13.89075),3.6757771086221775,True,False
20383,Donmuang - Rang Sit tollway Overpass,To Laksi - Donmuang Overpass - 8383,,13.89167,100.58576,19707,,POINT (100.58576 13.89167),0.07757383462456122,False,True
19716,Donmuang - Rang Sit tollway Overpass,Lak Si (2),,13.88672,100.58335,,20388,POINT (100.58335 13.88672),10.342603700208555,True,False
20388,Donmuang - Rang Sit tollway Overpass,To Yaek Laksi Overpass (2) - 8388,,13.88577,100.58259,19716,,POINT (100.58259 13.88577),7.132902791245767,False,True
19725,Donmuang - Rang Sit tollway Overpass,Ngamwongwan (4),,13.85333,100.56446,,20394,POINT (100.56446 13.85333),3.3511550263644696,True,False
20394,Donmuang - Rang Sit tollway Overpass,To Bang Khen - Laksi Overpass - 8394,,13.85404,100.56493,19725,,POINT (100.56493 13.85404),2.826996705455065,False,True
19703,Donmuang - Rang Sit tollway Overpass,Ratchayothin,,13.8369,100.55701,,20380,POINT (100.55701 13.8369),2.3474451575234685,True,False
20380,Donmuang - Rang Sit tollway Overpass,To Ngamwongwan (2),,13.83824,100.55725,19703,,POINT (100.55725 13.83824),1.22175991682062,False,True
19721,Donmuang - Rang Sit tollway Overpass,To Din Daeng 1,,13.80479,100.56032,,20391,POINT (100.56032 13.80479),2.887598949221524,True,False
20391,Donmuang - Rang Sit tollway Overpass,To Vibhavadi - Rangsit Rd.( Din Daeng ) - 8391,,13.80369,100.56053,19721,,POINT (100.56053 13.80369),1.7165061238691248,False,True
19722,Donmuang - Rang Sit tollway Overpass,To Din Daeng 2,,13.77854,100.55619,,20392,POINT (100.55619 13.77854),0.37539123987334727,True,False
20392,Donmuang - Rang Sit tollway Overpass,To Vibhavadi - Rangsit Rd.( Din Daeng ) - 8392,,13.77667,100.55544,19722,,POINT (100.55544 13.77667),2.1830007914128267,False,True
19708,Donmuang - Rang Sit tollway Overpass,To Donmueang (1),,13.92369,100.60355,,20384,POINT (100.60355 13.92369),3.9663983352047167,True,False
20384,Donmuang - Rang Sit tollway Overpass,To Vibhavadi - Rangsit Rd.( Donmueang ) - 8384,,13.92438,100.60384,19708,,POINT (100.60384 13.92438),2.5620118963028986,False,True
19715,Donmuang - Rang Sit tollway Overpass,To Donmueang (2),,13.95154,100.61946,,20387,POINT (100.61946 13.95154),1.566597564958889,True,False
20387,Donmuang - Rang Sit tollway Overpass,To Vibhavadi - Rangsit Rd.( Donmueang ) - 8387,,13.94977,100.61858,19715,,POINT (100.61858 13.94977),11.195765275232938,False,True
19829,Donmuang - Rang Sit tollway Overpass,To Kasetsart,,13.85397,100.56518,,20395,POINT (100.56518 13.85397),3.302422522441883,True,False
20395,Donmuang - Rang Sit tollway Overpass,To Vibhavadi - Rangsit Rd.( Kasetsart ) - 8395,,13.85316,100.56484,19829,,POINT (100.56484 13.85316),4.183305784105051,False,True
19706,Donmuang - Rang Sit tollway Overpass,To Laksi,,13.87655,100.57715,,20382,POINT (100.57715 13.87655),1.0262347727277021,True,False
20382,Donmuang - Rang Sit tollway Overpass,To Vibhavadi - Rangsit Rd. -8382,,13.87777,100.57772,19706,,POINT (100.57772 13.87777),2.8444086895511367,False,True
19719,Donmuang - Rang Sit tollway Overpass,To Lat Phrao (2),,13.8265,100.55802,,20390,POINT (100.55802 13.8265),0.23068233128911525,True,False
20390,Donmuang - Rang Sit tollway Overpass,To Vibhavadi - Rangsit Rd.( Lat Phrao ) - 8390,,13.8247,100.55838,19719,,POINT (100.55838 13.8247),2.4390013410316587,False,True
19704,Donmuang - Rang Sit tollway Overpass,To Ngamwongwan (2),,13.84428,100.55963,,20381,POINT (100.55963 13.84428),0.6693938153513619,True,False
20381,Donmuang - Rang Sit tollway Overpass,To Ngamwongwan Rd. - 8381,,13.84694,100.56092,19704,,POINT (100.56092 13.84694),2.3558001521177387,False,True
19718,Donmuang - Rang Sit tollway Overpass,To Ratcha Yothin,,13.84118,100.55835,,20389,POINT (100.55835 13.84118),0.6542707776344178,True,False
20389,Donmuang - Rang Sit tollway Overpass,To Vibhavadi - Rangsit Rd.( Ratcha Yothin ) - 8389,,13.83976,100.55807,19718,,POINT (100.55807 13.83976),1.3647186006518917,False,True
19834,Donmuang - Rang Sit tollway Overpass,National Memorial,,13.95178,100.6196,,19818,POINT (100.6196 13.95178),2.304574637025562,True,False
19818,Donmuang - Rang Sit tollway Overpass,Yaek Thuppatemi Overpass (2),,13.95154,100.61946,19834,19819,POINT (100.61946 13.95154),1.566597564958889,True,True
19819,Donmuang - Rang Sit tollway Overpass,Yaek Thuppatemi - Donmuang Overpass,,13.9326,100.60877,19818,19820,POINT (100.60877 13.9326),7.091053175060883,True,True
19820,Donmuang - Rang Sit tollway Overpass,Lak Si (2),,13.90755,100.59474,19819,19821,POINT (100.59474 13.90755),14.71763079321568,True,True
19821,Donmuang - Rang Sit tollway Overpass,Yaek Laksi Overpass (2),,13.88577,100.58259,19820,19822,POINT (100.58259 13.88577),7.132902791245767,True,True
19822,Donmuang - Rang Sit tollway Overpass,Laksi - Bang Khen Overpass,,13.87544,100.57678,19821,19823,POINT (100.57678 13.87544),5.94924347227946,True,True
19823,Donmuang - Rang Sit tollway Overpass,Kasetsart,,13.86096,100.56892,19822,19824,POINT (100.56892 13.86096),6.866192415039518,True,True
19824,Donmuang - Rang Sit tollway Overpass,Yaek Bang Khen Overpass (2),,13.85397,100.56518,19823,19825,POINT (100.56518 13.85397),3.302422522441883,True,True
19825,Donmuang - Rang Sit tollway Overpass,Ratchayothin,,13.84443,100.55998,19824,19826,POINT (100.55998 13.84443),3.471195604647,True,True
19826,Donmuang - Rang Sit tollway Overpass,Lat Phrao,,13.84118,100.55835,19825,19720,POINT (100.55835 13.84118),0.6542707776344178,True,True
19720,Donmuang - Rang Sit tollway Overpass,Yaek Lat Phrao Overpass (2),,13.8265,100.55802,19826,19827,POINT (100.55802 13.8265),0.23068233128911525,True,True
19827,Donmuang - Rang Sit tollway Overpass,Dindaeng 1,,13.81071,100.55962,19720,19828,POINT (100.55962 13.81071),1.1785178465494985,True,True
19828,Donmuang - Rang Sit tollway Overpass,Dindaeng 2,,13.80479,100.56032,19827,19723,POINT (100.56032 13.80479),2.887598949221524,True,True
19723,Donmuang - Rang Sit tollway Overpass,Dindaeng Flat (1),,13.77854,100.55619,19828,19831,POINT (100.55619 13.77854),0.37539123987334727,True,True
19831,Donmuang - Rang Sit tollway Overpass,1Dindaeng Flat-2Dindaeng Front Toll Plaza,,13.76862,100.55079,19723,,POINT (100.55079 13.76862),6.861736781450441,False,True
46458,Ekkachai 36,Kannan Maen Road,,13.68675,100.44436,,46459,POINT (100.44436 13.68675),2.6578244766117254,True,False
46459,Ekkachai 36,Ekkachai Road,,13.68518,100.44571,46458,,POINT (100.44571 13.68518),1.6374230685298252,False,True
46470,Ekkamai 12,Ekkamai 12/Ekkamai 5,,13.73088,100.58643,,46471,POINT (100.58643 13.73088),5.842169460128432,True,False
46471,Ekkamai 12,Pridi Banomyong 31,,13.72996,100.59153,46470,,POINT (100.59153 13.72996),6.194317925423781,False,True
46472,Ekkamai 21,Thong Lo 20,,13.73887,100.58727,,46473,POINT (100.58727 13.73887),1.8872241880891378,True,False
46473,Ekkamai 21,Sukhumvit 63,,13.73855,100.58886,46472,,POINT (100.58886 13.73855),3.1071928045061075,False,True
46476,Ekkamai 5,Thong Lo 10,,13.73154,100.58456,,46477,POINT (100.58456 13.73154),1.2188056990248435,True,False
46477,Ekkamai 5,Ekkamai 12/Ekkamai 5,,13.73088,100.58643,46476,,POINT (100.58643 13.73088),5.842169460128432,False,True
46478,Happy Land Sai 1 Road,Lat Phrao Road,,13.76806,100.64181,,46479,POINT (100.64181 13.76806),2.3027236292085824,True,False
46479,Happy Land Sai 1 Road,Lat Phrao 117,,13.77299,100.64153,46478,46480,POINT (100.64153 13.77299),3.2273906102980834,True,True
46480,Happy Land Sai 1 Road,Soi Muban Sinthorn,,13.77884,100.64093,46479,46481,POINT (100.64093 13.77884),2.1684588069297406,True,True
46481,Happy Land Sai 1 Road,Happy Land Sai 2 Road,,13.77958,100.64192,46480,46482,POINT (100.64192 13.77958),1.2311228729191104,True,True
46482,Happy Land Sai 1 Road,Nawamin Road,,13.78053,100.64505,46481,,POINT (100.64505 13.78053),1.9573704286497589,False,True
27009,Henri Dunant Rd.,Henry Dunant Intersection-647,,13.73082,100.53365,,27006,POINT (100.53365 13.73082),0.9610937894777818,True,False
27006,Henri Dunant Rd.,Political Science Chula,,13.73424,100.53415,27009,27007,POINT (100.53415 13.73424),4.2860593928130495,True,True
27007,Henri Dunant Rd.,Chulalongkorn University,,13.738,100.53474,27006,27008,POINT (100.53474 13.738),1.263196159138652,True,True
27008,Henri Dunant Rd.,Chaloem Phao Junction-647,,13.74532,100.53585,27007,,POINT (100.53585 13.74532),1.1079025149340855,False,True
21511,Highway 338,Buddha Monthon,,13.78771,100.33259,,21505,POINT (100.33259 13.78771),2.861544543338663,True,False
21505,Highway 338,Km-15 Highway 692,,13.78834,100.35881,21511,21506,POINT (100.35881 13.78834),6.056546687460086,True,True
21506,Highway 338,Km-10 Highway 692,,13.78341,100.40445,21505,21509,POINT (100.40445 13.78341),1.5255893593917182,True,True
21509,Highway 338,Ratchaphruek Rd. - Boromratchachonnani Rd. -338,,13.78007,100.44288,21506,21507,POINT (100.44288 13.78007),3.5689034225932947,True,True
21507,Highway 338,Km-5 Highway 338,,13.78236,100.45049,21509,21508,POINT (100.45049 13.78236),1.3372237714840671,True,True
21508,Highway 338,Highway 341-338 Junction,,13.78766,100.46889,21507,,POINT (100.46889 13.78766),0.12865393009553136,False,True
46486,Hua Mak Road,Hua Mak Road/Soi Ramkhamhaeng 24,,13.752,100.61731,,46487,POINT (100.61731 13.752),0.21875046110361684,True,False
46487,Hua Mak Road,Soi Ramkhamhaeng 24 Yaek 24,,13.75432,100.62429,46486,46488,POINT (100.62429 13.75432),0.9849133395247499,True,True
46488,Hua Mak Road,Soi Ramkhamhaeng 24/1,,13.75538,100.62855,46487,46489,POINT (100.62855 13.75538),6.994163294348595,True,True
46489,Hua Mak Road,Soi Ramkhamhaeng 24/2,,13.75464,100.62982,46488,46490,POINT (100.62982 13.75464),3.0353844427478798,True,True
46490,Hua Mak Road,Soi Ramkhamhaeng 26,,13.75429,100.63046,46489,46491,POINT (100.63046 13.75429),3.601342249146613,True,True
46491,Hua Mak Road,Soi Ramkhamhaeng 26/1,,13.75288,100.63239,46490,46492,POINT (100.63239 13.75288),4.889746797484943,True,True
46492,Hua Mak Road,Rama 9 Soi 57,,13.75214,100.63528,46491,46493,POINT (100.63528 13.75214),0.9221819320640534,True,True
46493,Hua Mak Road,Ramkhamhaeng 42,,13.75224,100.64035,46492,46494,POINT (100.64035 13.75224),0.8922119230510367,True,True
46494,Hua Mak Road,Srinagarindra Road,,13.75196,100.64524,46493,,POINT (100.64524 13.75196),0.15453329217103626,False,True
24000,Industrial Ring Rd.,Industrial Ring Bridge,,13.66891,100.53852,,24001,POINT (100.53852 13.66891),1.7866217262069888,True,False
24001,Industrial Ring Rd.,Over Rama 3 Rd.,,13.67315,100.53877,24000,24002,POINT (100.53877 13.67315),2.0774266720470274,True,True
24002,Industrial Ring Rd.,Industrial Ring Rd.(Rama 3),,13.67774,100.53946,24001,24003,POINT (100.53946 13.67774),3.5787694694772823,True,True
24003,Industrial Ring Rd.,Industrial Ring (Rama 3),,13.68221,100.54099,24002,24024,POINT (100.54099 13.68221),0.5841382169446437,True,True
24024,Industrial Ring Rd.,Rama 3 - Industrial Ring Rd. Intersection-533,,13.68576,100.54794,24003,,POINT (100.54794 13.68576),0.27079736545699556,False,True
46495,Industrial Ring Rd.,Suksawat Road,,13.66404,100.51696,,46496,POINT (100.51696 13.66404),3.4193062598642245,True,False
46496,Industrial Ring Rd.,Phrarachveriyaporn Soi 5,,13.66407,100.52697,46495,46497,POINT (100.52697 13.66407),2.676343919883061,True,True
46497,Industrial Ring Rd.,Phetchahung Road,,13.66497,100.53811,46496,,POINT (100.53811 13.66497),11.393886474008058,False,True
46498,Inthamara 45,Prachasuk Road,,13.7861,100.56702,,46499,POINT (100.56702 13.7861),6.435412235808645,True,False
46499,Inthamara 45,Ratchada Phisek Road,,13.78582,100.57387,46498,,POINT (100.57387 13.78582),4.563857309989009,False,True
46500,Intharaphorn Road,Pradit Manutham Road,,13.77779,100.60748,,46501,POINT (100.60748 13.77779),1.851942977404729,True,False
46501,Intharaphorn Road,Sri Wara Road,,13.77473,100.611,46500,46502,POINT (100.611 13.77473),2.942117404368153,True,True
46502,Intharaphorn Road,Lat Phrao 112,,13.77078,100.61484,46501,,POINT (100.61484 13.77078),1.1567860692080392,False,True
30000,Itsaraphap Road,Ladya Thadindaeng Intersection-545,,13.72841,100.50179,,30001,POINT (100.50179 13.72841),2.5629405183463208,True,False
30001,Itsaraphap Road,Ban Khaek Intersection-545,,13.73088,100.49468,30000,30002,POINT (100.49468 13.73088),0.01613821338084673,True,True
30002,Itsaraphap Road,Soi Itsaraphap 24,,13.73341,100.49139,30001,30003,POINT (100.49139 13.73341),1.2710913259699212,True,True
30003,Itsaraphap Road,Soi It Saraphap 28,,13.73639,100.4871,30002,30004,POINT (100.4871 13.73639),2.402703307624448,True,True
30004,Itsaraphap Road,Pho Sam Ton Junction,,13.7404,100.48392,30003,30005,POINT (100.48392 13.7404),1.1807724411506753,True,True
30005,Itsaraphap Road,Soi Thawitha Phisek-545,,13.74376,100.48131,30004,30006,POINT (100.48131 13.74376),2.378640947140337,True,True
30006,Itsaraphap Road,Soi Wat Khrut,,13.74661,100.47989,30005,30007,POINT (100.47989 13.74661),1.7428718447996954,True,True
30007,Itsaraphap Road,Charan Sanitwong 22,,13.74983,100.47872,30006,30008,POINT (100.47872 13.74983),2.1053653154001153,True,True
30008,Itsaraphap Road,Soi It Saraphap 39,,13.75216,100.47809,30007,30009,POINT (100.47809 13.75216),0.6261621095441664,True,True
30009,Itsaraphap Road,Phran Nok Intersection,,13.75556,100.47798,30008,30010,POINT (100.47798 13.75556),1.7552402861946488,True,True
30010,Itsaraphap Road,Itsaraphap Rd. Cross Wat Sutthawat Rd.,,13.75988,100.47781,30009,,POINT (100.47781 13.75988),0.6412402756639403,False,True
42501,Kamphaengphet 2 Road,Kamphaengphet 2 Rd. Cross Kamphaengphet Rd.,,13.79778,100.54846,,42502,POINT (100.54846 13.79778),0.7040811434314036,True,False
42502,Kamphaengphet 2 Road,Express Km.11 Intersection,,13.80311,100.5482,42501,42503,POINT (100.5482 13.80311),6.26113033425795,True,True
42503,Kamphaengphet 2 Road,Under Sirat Expressway,,13.80741,100.54812,42502,42504,POINT (100.54812 13.80741),1.1616369122675672,True,True
42504,Kamphaengphet 2 Road,Mo Chit 2,,13.81296,100.55,42503,42505,POINT (100.55 13.81296),0.018777251360107793,True,True
42505,Kamphaengphet 2 Road,Back of Rot Fai Golf Driving Range,,13.81831,100.54956,42504,42506,POINT (100.54956 13.81831),0.3116794983053606,True,True
42506,Kamphaengphet 2 Road,Nikhomrotfai Sai 1 Road,,13.82235,100.54878,42505,42507,POINT (100.54878 13.82235),2.422319605927589,True,True
42507,Kamphaengphet 2 Road,Ratchavipha Interchange-570,,13.82907,100.55308,42506,,POINT (100.55308 13.82907),8.026978187453242,False,True
46513,Kamphaengphet 2 Road,Sri Rat Expressway,,13.80954,100.54817,,46514,POINT (100.54817 13.80954),8.344761670959514,True,False
46514,Kamphaengphet 2 Road,Rot Fai Road,,13.81137,100.54598,46513,,POINT (100.54598 13.81137),1.3263365210623423,False,True
42000,Kamphaeng Phet Road,Kamphaengphet Rd. Cross Rama 6,,13.7969,100.53834,,42001,POINT (100.53834 13.7969),4.005861112874636,True,False
42001,Kamphaeng Phet Road,Yan Phahon,,13.79787,100.5412,42000,42002,POINT (100.5412 13.79787),1.7514331680820905,True,True
42002,Kamphaeng Phet Road,The Marketing Organization For Farmers,,13.79751,100.54393,42001,42003,POINT (100.54393 13.79751),2.2761755278081446,True,True
42003,Kamphaeng Phet Road,Mo Chit 2,,13.79772,100.54846,42002,42004,POINT (100.54846 13.79772),1.0934693270588962,True,True
42004,Kamphaeng Phet Road,Kamphaeng Phet Intersection-569,,13.79791,100.55106,42003,,POINT (100.55106 13.79791),2.5738481086826757,False,True
15201,Kamphaeng Phet Road,Bang Phruek Intersection,,13.68682,100.42606,,15202,POINT (100.42606 13.68682),1.1915787888449527,True,False
15202,Kamphaeng Phet Road,Ratchaphruek Rd. - Kanlapraphruek Rd. 2,,13.71309,100.46155,15201,15203,POINT (100.46155 13.71309),9.83814738019504,True,True
15203,Kamphaeng Phet Road,Krungthon-ratchadaphisak Intersection-631,,13.71544,100.47827,15202,,POINT (100.47827 13.71544),0.9641909028269475,False,True
19504,Kanchanaphisek Road,Km-15 Karnchanaphisek Rd.-684,,13.65881,100.40524,,19505,POINT (100.40524 13.65881),10.285323152350426,True,False
19505,Kanchanaphisek Road,Km-20 Karnchanaphisek Rd.,,13.70439,100.40644,19504,19506,POINT (100.40644 13.70439),2.450431209485707,True,True
19506,Kanchanaphisek Road,Km-25 Karnchanaphisek Rd.-684,,13.74897,100.40604,19505,19507,POINT (100.40604 13.74897),6.97755829498376,True,True
19507,Kanchanaphisek Road,Km-30 Karnchanaphisek Rd.,,13.79355,100.41006,19506,19522,POINT (100.41006 13.79355),9.636394755721776,True,True
19522,Kanchanaphisek Road,Thawi Watthana,,13.80132,100.41061,19507,,POINT (100.41061 13.80132),3.7705355483577985,False,True
20000,Kanchanaphisek Road,Km-63 Karnchanaphisek Rd.,,13.65347,100.6893,,20001,POINT (100.6893 13.65347),12.718717093333762,True,False
20001,Kanchanaphisek Road,Km-60 Karnchanaphisek Rd.-524,,13.67838,100.69934,20000,20002,POINT (100.69934 13.67838),4.885797713033937,True,True
20002,Kanchanaphisek Road,Thapchang Interchange,,13.73242,100.70267,20001,20003,POINT (100.70267 13.73242),2.2624608158754387,True,True
20003,Kanchanaphisek Road,Km-50 Karnchanaphisek Rd.-524,,13.76618,100.69361,20002,20004,POINT (100.69361 13.76618),4.504292049224199,True,True
20004,Kanchanaphisek Road,Km-45 Karnchanaphisek Rd.,,13.80901,100.67838,20003,20005,POINT (100.67838 13.80901),1.5779435000537037,True,True
20005,Kanchanaphisek Road,Ram Intra Interchange-524,,13.82704,100.67459,20004,20006,POINT (100.67459 13.82704),4.159250247920386,True,True
20006,Kanchanaphisek Road,Km-40 Karnchanaphisek Rd.,,13.85428,100.67412,20005,20007,POINT (100.67412 13.85428),8.128806223220563,True,True
20007,Kanchanaphisek Road,Km-35 Karnchanaphisek Rd.-524,,13.8942,100.69172,20006,,POINT (100.69172 13.8942),2.9527412972802294,False,True
14190,Kasem Rat Road,Duan Kasem Rat Intersection,,13.71131,100.56372,,14191,POINT (100.56372 13.71131),1.6486758517341793,True,False
14191,Kasem Rat Road,Krom Sunlakakon Intersection,,13.71469,100.56527,14190,14192,POINT (100.56527 13.71469),1.7860950618325073,True,True
14192,Kasem Rat Road,Kan Port Intersection,,13.71716,100.56637,14191,14193,POINT (100.56637 13.71716),4.9012921112186065,True,True
14193,Kasem Rat Road,Kasemrat Intersection-610,,13.71899,100.56717,14192,,POINT (100.56717 13.71899),1.1197865223830579,False,True
45912,Kaset-nawamin Rd.,Kasetsart Intersection-680,,13.83973,100.57553,,45907,POINT (100.57553 13.83973),1.463728975283261,True,False
45907,Kaset-nawamin Rd.,Lat Pla Khao Intersection-680,,13.84172,100.59493,45912,45908,POINT (100.59493 13.84172),3.530894605494428,True,True
45908,Kaset-nawamin Rd.,Soi Senaniwet 200,,13.83321,100.61026,45907,45909,POINT (100.61026 13.83321),11.607506472221639,True,True
45909,Kaset-nawamin Rd.,Akamai-Ramintra Exp Intersection,,13.82571,100.62827,45908,45910,POINT (100.62827 13.82571),0.6054755518964792,True,True
45910,Kaset-nawamin Rd.,Kasetsart-Navamin Junction,,13.80971,100.6501,45909,,POINT (100.6501 13.80971),0.9848807946564858,False,True
46523,Kingkaeo Road,Lat Krabang 28,,13.71725,100.7412,,46524,POINT (100.7412 13.71725),6.964264080483296,True,False
46524,Kingkaeo Road,Lat Krabang Road,,13.72233,100.7398,46523,,POINT (100.7398 13.72233),4.873838885914255,False,True
34501,Krung Kasem Road,Maitri Chit Junction-554,,13.73808,100.51541,,34502,POINT (100.51541 13.73808),3.5864039097204246,True,False
34502,Krung Kasem Road,Nopphawong 2 Intersection,,13.74553,100.51617,34501,34503,POINT (100.51617 13.74553),6.765008325685162,True,True
34503,Krung Kasem Road,Kasat Suk Intersection-554,,13.74909,100.51674,34502,34504,POINT (100.51674 13.74909),0.7277965889575922,True,True
34504,Krung Kasem Road,Krungkasem Rd. Cross Anantanak Rd.,,13.7509,100.51699,34503,34510,POINT (100.51699 13.7509),4.758533370755285,True,True
34510,Krung Kasem Road,Charoen Rat Bridge,,13.7533,100.51714,34504,34505,POINT (100.51714 13.7533),4.887736683968577,True,True
34505,Krung Kasem Road,Saphan Khao Intersection-554,,13.7566,100.51606,34510,34506,POINT (100.51606 13.7566),0.014041373970274532,True,True
34506,Krung Kasem Road,Saphan Thewa Kam Intersection-554,,13.76015,100.51286,34505,34507,POINT (100.51286 13.76015),2.6966874990320417,True,True
34507,Krung Kasem Road,Makkhawan Rangsan Circle,,13.76354,100.50938,34506,34508,POINT (100.50938 13.76354),4.583397909032411,True,True
34508,Krung Kasem Road,Me Daeng Intersection-554,,13.7665,100.50672,34507,34509,POINT (100.50672 13.7665),0.4643913646422722,True,True
34509,Krung Kasem Road,Thewet Intersection-554,,13.76964,100.5037,34508,,POINT (100.5037 13.76964),0.16260235659462904,False,True
25000,Krungthon Rd.,Krungthon-ratchadaphisak Intersection-535,,13.71544,100.47827,,25001,POINT (100.47827 13.71544),0.9641909028269475,True,False
25001,Krungthon Rd.,Soi Wat Po Mit,,13.71912,100.48581,25000,25002,POINT (100.48581 13.71912),3.7507318682873083,True,True
25002,Krungthon Rd.,Taksin Intersection-535,,13.72071,100.49119,25001,25003,POINT (100.49119 13.72071),3.479416129479262,True,True
25003,Krungthon Rd.,Soi Krungthonburi 1,,13.72108,100.4955,25002,25004,POINT (100.4955 13.72108),9.959375920479502,True,True
25004,Krungthon Rd.,Soi Krungthonburi 6,,13.72099,100.49939,25003,25005,POINT (100.49939 13.72099),12.675453505635362,True,True
25005,Krungthon Rd.,Grand Tower Inn Hotel,,13.72052,100.50729,25004,25022,POINT (100.50729 13.72052),8.757173563445368,True,True
25022,Krungthon Rd.,Taksin Bridge-535,,13.7195,100.5117,25005,,POINT (100.5117 13.7195),3.9058227304889623,False,True
45610,Lat Krabang Road,TANG RADAP ONNUT (WESTERN) Junction-678,,13.72146,100.69779,,45611,POINT (100.69779 13.72146),2.041264063781406,True,False
45611,Lat Krabang Road,TANG RADAP ONNUT (ESTERN) Junction,,13.72158,100.70272,45610,45612,POINT (100.70272 13.72158),3.1927365932783394,True,True
45612,Lat Krabang Road,Soi Muban ThaiSamut,,13.72213,100.7163,45611,45613,POINT (100.7163 13.72213),6.0112727178718615,True,True
45613,Lat Krabang Road,King Kaeo Intersection,,13.72251,100.73992,45612,,POINT (100.73992 13.72251),0.4514507310619567,False,True
43000,Lat Phrao Road,Lat Phrao Intersection-571,,13.81339,100.56028,,43001,POINT (100.56028 13.81339),0.9361554682780713,True,False
43001,Lat Phrao Road,Soi Lat Phrao 8,,13.81101,100.56476,43000,43002,POINT (100.56476 13.81101),5.558433291873184,True,True
43002,Lat Phrao Road,Soi Lat Phrao 10,,13.80992,100.56669,43001,43003,POINT (100.56669 13.80992),3.959945854955866,True,True
43003,Lat Phrao Road,Soi Lat Phrao 18,,13.80803,100.57006,43002,43004,POINT (100.57006 13.80803),1.6399965121757785,True,True
43004,Lat Phrao Road,Ratchada-lat Phrao Intersection-571,,13.80534,100.57495,43003,43024,POINT (100.57495 13.80534),3.6946770456744007,True,True
43024,Lat Phrao Road,Lat Phrao Fire Station,,13.80325,100.57901,43004,43005,POINT (100.57901 13.80325),12.060882455977751,True,True
43005,Lat Phrao Road,Soi Lat Phrao 35,,13.8021,100.58079,43024,43006,POINT (100.58079 13.8021),2.751958721539703,True,True
43006,Lat Phrao Road,Phawana Junction,,13.80068,100.58326,43005,43007,POINT (100.58326 13.80068),7.059867799008331,True,True
43007,Lat Phrao Road,Phibun Uppatham Junction,,13.79834,100.58736,43006,43008,POINT (100.58736 13.79834),4.390761966888559,True,True
43008,Lat Phrao Road,Chok Chai 4 Junction,,13.79485,100.59361,43007,43009,POINT (100.59361 13.79485),3.5605006578960254,True,True
43009,Lat Phrao Road,Khet Nut Junction,,13.7915,100.59973,43008,43010,POINT (100.59973 13.7915),1.5205521319787885,True,True
43010,Lat Phrao Road,Chanthima Junction,,13.78846,100.6052,43009,43011,POINT (100.6052 13.78846),3.784881099844223,True,True
43011,Lat Phrao Road,Uder Chalongrat Tollway-571,,13.7864,100.60881,43010,43012,POINT (100.60881 13.7864),1.5439707835536145,True,True
43012,Lat Phrao Road,Mahat Thai-Lat Phrao Junction,,13.7812,100.61816,43011,43013,POINT (100.61816 13.7812),1.596992884427455,True,True
43013,Lat Phrao Road,Lat Phrao 101 Junction,,13.77504,100.62922,43012,43014,POINT (100.62922 13.77504),1.0602131575256475,True,True
43014,Lat Phrao Road,HAPPY LAND Junction,,13.76791,100.64192,43013,43025,POINT (100.64192 13.76791),0.9524816750456542,True,True
43025,Lat Phrao Road,Happy Land Sai 2 Road,,13.7674,100.6432,43014,,POINT (100.6432 13.7674),13.595666360452695,False,True
43023,Lat Phrao Road,Bang Kapi Intersection,,13.76649,100.64806,,43016,POINT (100.64806 13.76649),2.2883563280744528,True,False
43016,Lat Phrao Road,Nida Intersection-571,,13.77266,100.65447,43023,,POINT (100.65447 13.77266),6.035766783593501,False,True
46525,Lat Pla Khao Road,Lat Plakhao 5/Lad Plakhao Road,,13.83382,100.59207,,46526,POINT (100.59207 13.83382),2.1766847373953566,True,False
46526,Lat Pla Khao Road,Lat Pla Khao Intersection-680,,13.84172,100.59493,46525,,POINT (100.59493 13.84172),3.530894605494428,False,True
46527,Ladphrao Wang Hin 83 Road,Lat Phrao Wanghin Road/Ladphrao Wang Hin 83 Road,,13.83192,100.59184,,46528,POINT (100.59184 13.83192),2.968251704287895,True,False
46528,Ladphrao Wang Hin 83 Road,Lat Pla Khao Road,,13.83258,100.59189,46527,,POINT (100.59189 13.83258),1.4213708972825965,False,True
46535,Lasalle 20,Soi Sukhumvit 105,,13.66032,100.61202,,46536,POINT (100.61202 13.66032),0.18310566006900855,True,False
46536,Lasalle 20,Lasalle Road,,13.66384,100.61322,46535,,POINT (100.61322 13.66384),0.6437407746538409,False,True
46542,Lasalle 55,Lasalle Road,,13.65953,100.6298,,46543,POINT (100.6298 13.65953),0.3562292866551215,True,False
46543,Lasalle 55,Bang Na-Trat 30,,13.66256,100.63033,46542,,POINT (100.63033 13.66256),6.537681791093341,False,True
46547,Lat Phrao 101,Lat Phrao Road,,13.77514,100.62917,,46548,POINT (100.62917 13.77514),1.5515983033659788,True,False
46548,Lat Phrao 101,Lat Phrao 101/1 Yaek 21,,13.77968,100.63016,46547,46549,POINT (100.63016 13.77968),4.77912707992626,True,True
46549,Lat Phrao 101,Soi Lat Phrao 101 Yaek 19,,13.78511,100.63026,46548,46550,POINT (100.63026 13.78511),2.8853577641059656,True,True
46550,Lat Phrao 101,Soi Santisuk,,13.78606,100.62984,46549,46551,POINT (100.62984 13.78606),3.107374603505054,True,True
46551,Lat Phrao 101,Soi Lad Phrao 101,,13.78919,100.62878,46550,,POINT (100.62878 13.78919),9.274476808307279,False,True
46560,Lat Phrao 112,Soi Ramkhamhaeng 43/1,,13.76766,100.61459,,46561,POINT (100.61459 13.76766),0.160039816290308,True,False
46561,Lat Phrao 112,Intharaphorn Road,,13.77078,100.61484,46560,,POINT (100.61484 13.77078),1.1567860692080392,False,True
46572,Lat Phrao 87,Lat Phrao Road,,13.78166,100.61748,,46573,POINT (100.61748 13.78166),2.6883123451718234,True,False
46573,Lat Phrao 87,Soi Lad Phrao 87,,13.78852,100.61819,46572,,POINT (100.61819 13.78852),3.59095820257643,False,True
45501,Lat Ya Road,Wong Wian Yai Cicle,,13.7264,100.49376,,45502,POINT (100.49376 13.7264),7.841356316561531,True,False
45502,Lat Ya Road,Ladya Thadindaeng Intersection-576,,13.72841,100.50179,45501,45503,POINT (100.50179 13.72841),2.5629405183463208,True,True
45503,Lat Ya Road,Khlong San Intersection-576,,13.72999,100.50873,45502,,POINT (100.50873 13.72999),1.3990984535775626,False,True
46590,Latphrao 71,Lat Phrao Road,,13.78706,100.6077,,46591,POINT (100.6077 13.78706),3.348466328284273,True,False
46591,Latphrao 71,Sangkhom Songkho Road,,13.79505,100.60897,46590,,POINT (100.60897 13.79505),3.284004059275728,False,True
46592,Liap Khlong Prapa Road,304/ Pracha Chuen Road,,13.89527,100.55434,,46593,POINT (100.55434 13.89527),3.2940841892164006,True,False
46593,Liap Khlong Prapa Road,Moo Ban Phong Phet,,13.90685,100.55702,46592,46594,POINT (100.55702 13.90685),0.6458870154241734,True,True
46594,Liap Khlong Prapa Road,Nattanan Soi 1,,13.91973,100.56004,46593,46595,POINT (100.56004 13.91973),3.6500535038372885,True,True
46595,Liap Khlong Prapa Road,Srong Prapha Road/Pracha Chuen-Pakkred Road,,13.93421,100.56346,46594,,POINT (100.56346 13.93421),5.649104228811565,False,True
46596,Liap Khlong Premprachakon Road,Kampaeng Phet 6 Road,,13.93434,100.60811,,46597,POINT (100.60811 13.93434),5.321657392136128,True,False
46597,Liap Khlong Premprachakon Road,Muban Prempracha Road,,13.94257,100.60717,46596,,POINT (100.60717 13.94257),4.848118932786431,False,True
